위도,경도,순번,기관분류,기관명,기관주소_도로명,의료기관분류,지역,대표전화,대표전화2,팩스번호,기준일자
35.8538871,128.4801355,1,상급종합병원,계명대학교동산병원,대구광역시 달서구 달구벌대로 1035 (신당동),지역응급의료센터,대구,1577-6622,053-1577-6622,053-258-7130,2024-05-20
35.81469791,128.5250923,2,종합병원,나사렛종합병원,"대구광역시 달서구 월배로 97, 나사렛병원 (진천동)",지역응급의료기관,대구,053-643-1400,053-643-1400,053-643-1405,2024-05-20
35.85264535,128.5449724,3,종합병원,더블유병원,대구광역시 달서구 달구벌대로 1632 (감삼동),지역응급의료기관,대구,053-550-5000,053-550-5000,053-572-7700,2024-05-20
35.83250638,128.5535563,4,종합병원,삼일병원,"대구광역시 달서구 월배로 436, 지하1,지상1~11층 (송현동)",지역응급의료기관,대구,053-659-3100,053-659-3100,053-659-3102,2024-05-20
35.85064264,128.5413828,5,종합병원,의료법인구의료재단 구병원,대구광역시 달서구 감삼북길 141 (감삼동),지역응급의료기관,대구,053-560-9114,053-560-9114,053-558-1163,2024-05-20
35.80288797,128.5517348,6,종합병원,한국보훈복지의료공단 대구보훈병원,대구광역시 달서구 월곡로 60 (도원동),지역응급의료기관,대구,053-630-7000,053-630-7000,053-630-7089,2024-05-20
35.81345343,128.525239,7,병원,(의)서봉의료재단 보강병원,대구광역시 달서구 월배로 102 (진천동),응급의료기관이외,대구,053-641-9200,053-641-9200,053-641-9247,2024-05-20
35.81329928,128.5213207,8,병원,달서미즈맘병원,대구광역시 달서구 월배로 62 (진천동),응급의료기관이외,대구,053-609-5000,053-609-5000,053-635-4149,2024-05-20
35.8505249,128.539511,9,병원,더나은병원,대구광역시 달서구 달구벌대로 1576 (감삼동),응급의료기관이외,대구,053-563-1000,053-563-1000,053-563-0100,2024-05-20
35.85110601,128.5385628,10,병원,더열린병원,"대구광역시 달서구 달구벌대로 1571, 더열린병원 (죽전동)",응급의료기관이외,대구,053-555-5520,053-555-5520,053-555-5526,2024-05-20
35.81905405,128.5366968,11,병원,마디탄탄병원,대구광역시 달서구 월배로 215 (상인동),응급의료기관이외,대구,053-634-1000,053-634-1000,053-643-2888,2024-05-20
35.85121305,128.5368032,12,병원,미래여성병원,대구광역시 달서구 와룡로 207 (죽전동),응급의료기관이외,대구,053-608-7000,053-608-7003,053-565-7200,2024-05-20
35.81148577,128.5175797,13,병원,백두병원,대구광역시 달서구 월배로 18 (진천동),응급의료기관이외,대구,053-425-5919,053-425-5919,053-423-2888,2024-05-20
35.83675189,128.5416645,14,병원,보광병원,"대구광역시 달서구 구마로 128, 보광병원 (본동)",응급의료기관이외,대구,053-651-3232,053-651-3232,053-527-5759,2024-05-20
35.85104881,128.4932264,15,병원,성서병원,대구광역시 달서구 달구벌대로 1152 (신당동),응급의료기관이외,대구,053-584-6655,053-584-6655,053-584-2552,2024-05-20
35.83789305,128.5364365,16,병원,에스병원,대구광역시 달서구 와룡로 57 (본리동),응급의료기관이외,대구,053-524-6601,053-524-6601,053-524-6607,2024-05-20
35.81608424,128.5295833,17,병원,여성아이병원,대구광역시 달서구 월배로 141 (진천동),응급의료기관이외,대구,1877-6622,1877-6622,053-473-2434,2024-05-20
35.84955946,128.5357182,18,병원,열린아동병원,"대구광역시 달서구 달구벌대로 1542, 3,4,5층 (감삼동)",응급의료기관이외,대구,053-269-7000,053-269-7000,053-269-7001,2024-05-20
35.83681628,128.5373701,19,병원,우리병원,대구광역시 달서구 와룡로 48 (본동),응급의료기관이외,대구,053-550-6700,053-550-6700,053-550-6789,2024-05-20
35.85690806,128.5568597,20,병원,의료법인명문의료재단 대구기독병원,대구광역시 달서구 달구벌대로 1750 (두류동),응급의료기관이외,대구,1688-7477,1688-7477,053-606-1644,2024-05-20
35.8573514,128.558435,21,병원,의료법인상보의료재단 대구경상병원,"대구광역시 달서구 달구벌대로 1762, 두류빌딩 1,3~6,8층 (두류동)",응급의료기관이외,대구,053-620-7300,053-620-7339,053-623-1177,2024-05-20
35.83364241,128.5396399,22,병원,의료법인열경의료재단 허병원,대구광역시 달서구 학산로 121 (본동),응급의료기관이외,대구,053-527-0300,053-527-0300,053-663-1200,2024-05-20
35.83664306,128.5516923,23,병원,의료법인 일민의료재단 세강병원,"대구광역시 달서구 구마로 220, 세강병원 (송현동)",응급의료기관이외,대구,053-215-6200,053-215-6200,053-620-6300,2024-05-20
35.85510995,128.5028286,24,병원,의료법인해성의료재단해성아리즈웰병원,대구광역시 달서구 계대동문로 96 (이곡동),응급의료기관이외,대구,053-760-1000,053-760-1081,053-581-2548,2024-05-20
35.8110469,128.5169351,25,병원,진천신라병원,대구광역시 달서구 월배로 10 (진천동),응급의료기관이외,대구,053-642-2475,053-642-2475,053-642-0094,2024-05-20
35.83029821,128.5515819,26,병원,참조은병원,대구광역시 달서구 월배로 404 (송현동),응급의료기관이외,대구,053-630-8000,053-630-8000,053-630-8500,2024-05-20
35.85483038,128.5113852,27,병원,한미병원,대구광역시 달서구 이곡동로 66 (이곡동),응급의료기관이외,대구,053-284-0119,053-284-0119,053-593-4107,2024-05-20
35.85404428,128.5485138,28,한방병원,대구S한방병원,"대구광역시 달서구 달구벌대로 1666, 감삼스퀘어 8,9,10층 (두류동)",응급의료기관이외,대구,053-637-3375,053-637-3375,053-752-3375,2024-05-20
35.81856669,128.5348232,29,한방병원,광명한방병원,대구광역시 달서구 월배로 195 (상인동),응급의료기관이외,대구,053-636-7777,053-636-7777,053-636-0776,2024-05-20
35.82502356,128.5279716,30,한방병원,수월한방병원,"대구광역시 달서구 조암로 17, 월성동 이래타워 키즈 2,3,4층 (월성동)",응급의료기관이외,대구,053-643-5000,053-643-5000,053-643-5008,2024-05-20
35.8542145,128.5467657,31,한방병원,잘보는한방병원,대구광역시 달서구 달구벌대로 1653(감삼동),응급의료기관이외,대구,053-559-7777,053-559-7777,053-551-7778,2024-05-20
35.85215632,128.5434966,32,한방병원,창한방병원,"대구광역시 달서구 달구벌대로 1616, 핸즈미세빌딩 (감삼동)",응급의료기관이외,대구,053-556-9900,053-556-9900,053-556-9905,2024-05-20
35.83791698,128.5568815,33,치과병원,곽치과병원,"대구광역시 달서구 구마로 265, 5층 (성당동, 미래빌딩)",응급의료기관이외,대구,053-654-3447,053-654-3447,053-628-3448,2024-05-20
35.81819979,128.5362483,34,치과병원,라온치과병원,"대구광역시 달서구 월배로 206 (상인동, 2~6층)",응급의료기관이외,대구,053-634-0000,053-634-0000,053-634-2307,2024-05-20
35.83710735,128.5565438,35,치과병원,서부라온치과병원,대구광역시 달서구 구마로 262 (송현동),응급의료기관이외,대구,053-629-1900,053-629-1900,053-629-1906,2024-05-20
35.85092012,128.5378087,36,치과병원,에프엠치과병원,"대구광역시 달서구 달구벌대로 1565, 4~9층 (죽전동)",응급의료기관이외,대구,053-560-1000,053-560-1000,053-560-1099,2024-05-20
35.821599,128.5207763,37,치과병원,제로치과병원,"대구광역시 달서구 조암로 5, 5층 501,502,503호 (월성동)",응급의료기관이외,대구,053-642-2200,053-642-2200,053-642-2209,2024-05-20
35.84915715,128.5469634,38,정신병원,미주병원,대구광역시 달서구 당산로 138 (성당동),응급의료기관이외,대구,053-629-8119,053-629-8119,053-629-8115,2024-05-20
35.85493476,128.5508782,39,정신병원,베스트병원,"대구광역시 달서구 달구벌대로 1690, 5,6,7,8,9층 (두류동)",응급의료기관이외,대구,053-657-2000,053-657-2000,053-655-3662,2024-05-20
35.85129309,128.5390512,40,정신병원,서대구대동병원,대구광역시 달서구 달구벌대로 1577 (죽전동),응급의료기관이외,대구,053-662-1000,053-662-1000,053-662-1001,2024-05-20
35.8606118,128.5742028,41,정신병원,위드병원,"대구광역시 달서구 명덕로 23, 2층 (두류동)",응급의료기관이외,대구,053-522-1275,053-522-1275,053-523-1275,2024-05-20
35.85219826,128.5731899,42,요양병원,대구명성요양병원,대구광역시 달서구 성당로 223 (두류동),응급의료기관이외,대구,053-260-7000,053-260-7000,053-262-5115,2024-05-20
35.81449849,128.5274038,43,요양병원,대구행복요양병원,"대구광역시 달서구 월배로 120, 6~10층 (진천동)",응급의료기관이외,대구,053-720-5700,053-720-5700,053-710-5574,2024-05-20
35.82002923,128.5403222,44,요양병원,상인요양병원,"대구광역시 달서구 월배로 247, 지하1층, 지상2,3,4,5층 (상인동)",응급의료기관이외,대구,053-282-5000,053-282-5000,053-282-5001,2024-05-20
35.84803838,128.5188363,45,요양병원,성서요양병원,대구광역시 달서구 문화회관1안길 29 (장기동),응급의료기관이외,대구,053-593-7587,053-593-7587,053-593-7599,2024-05-20
35.82874495,128.5502651,46,요양병원,송현효요양병원,대구광역시 달서구 월배로 384 (송현동),응급의료기관이외,대구,053-626-7100,053-626-7100,053-626-7105,2024-05-20
35.8501251,128.5301312,47,요양병원,신홍도요양병원,"대구광역시 달서구 용산로 141, 그랜드M 타워 지하1, 지상2,10,11층 (용산동)",응급의료기관이외,대구,053-526-5991,053-526-5991,053-526-5992,2024-05-20
35.81518397,128.5272977,48,요양병원,월배요양병원,"대구광역시 달서구 월배로 119, 3,6,7,8층 (진천동)",응급의료기관이외,대구,053-632-0808,053-632-0808,053-634-0011,2024-05-20
35.8573514,128.558435,49,요양병원,의료법인상보의료재단 대구경상요양병원,"대구광역시 달서구 달구벌대로 1762, 두류빌딩 7,8층 (두류동)",응급의료기관이외,대구,053-620-7300,053-620-7300,053-623-1177,2024-05-20
35.83199586,128.5508963,50,요양병원,중앙요양병원,"대구광역시 달서구 월배로83길 14, 지하1, 2~5층 (송현동)",응급의료기관이외,대구,053-654-7575,053-626-4430,053-654-5654,2024-05-20
35.83902224,128.5576088,51,요양병원,한결요양병원,대구광역시 달서구 대명천로 15 (성당동),응급의료기관이외,대구,053-591-9111,053-591-9111,053-592-9555,2024-05-20
35.83317022,128.5542361,52,요양병원,해오름요양병원,대구광역시 달서구 월배로 446(송현동),응급의료기관이외,대구,053-710-3119,053-710-3119,053-710-0110,2024-05-20
35.85153984,128.5732847,53,요양병원,휴요양병원,"대구광역시 달서구 성당로 215, 1~7층 (두류동)",응급의료기관이외,대구,053-652-2220,053-652-2220,053-652-2221,2024-05-20
35.81718285,128.523659,54,치과의원,e드림치과의원,"대구광역시 달서구 진천로 92, 3층 (대천동)",응급의료기관이외,대구,053-633-3060,053-633-3060,053-633-0652,2024-05-20
35.82192024,128.5285929,55,치과의원,E-행복한치과의원,"대구광역시 달서구 조암남로 38, 403호 (월성동)",응급의료기관이외,대구,053-426-2875,053-426-2875,053-255-7528,2024-05-20
35.82480089,128.525314,56,치과의원,가온해치과의원,"대구광역시 달서구 조암로 40, 3층 (월성동)",응급의료기관이외,대구,053-636-2275,053-636-2275,053-636-2274,2024-05-20
35.8532319,128.4788686,57,치과의원,강창더좋은치과의원,"대구광역시 달서구 달구벌대로 1019, 302호 (호산동)",응급의료기관이외,,053-253-7528,053-253-7528,053-253-7527,2024-05-20
35.83158937,128.533151,58,치과의원,건도미치과의원,"대구광역시 달서구 월성로 20, 2층 (월성동, 건도파라다이스)",응급의료기관이외,대구,053-641-2875,053-641-2875,053-642-1080,2024-05-20
35.84811352,128.5284572,59,치과의원,고른이연합치과의원,대구광역시 달서구 한들로 19,응급의료기관이외,대구,053-527-7100,053-527-7100,053-527-7101,2024-05-20
35.82411628,128.5454077,60,치과의원,고앤박치과의원,대구광역시 달서구 월배로 317 (송현동),응급의료기관이외,대구,053-624-7511,053-624-7511,053-624-7512,2024-05-20
35.84955946,128.5357182,61,치과의원,고운치과의원,대구광역시 달서구 달구벌대로 1542 (감삼동),응급의료기관이외,대구,053-555-2804,053-555-2804,053-553-7582,2024-05-20
35.85152556,128.4999828,62,치과의원,공단치과의원,대구광역시 달서구 달구벌대로 1212 (이곡동),응급의료기관이외,대구,053-588-2828,053-588-2828,053-587-8702,2024-05-20
35.85566593,128.5525994,63,치과의원,광장치과의원,대구광역시 달서구 달구벌대로 1708 (두류동),응급의료기관이외,대구,053-622-5545,053-622-5545,,2024-05-20
35.85570432,128.4986362,64,치과의원,구일치과의원,대구광역시 달서구 계대동문로 57 (신당동),응급의료기관이외,대구,053-583-5221,053-583-5221,053-584-0281,2024-05-20
35.82438159,128.5243262,65,치과의원,굿웰치과의원,"대구광역시 달서구 조암로 48, 301호 (월성동)",응급의료기관이외,대구,053-631-2879,053-631-2879,053-631-2878,2024-05-20
35.8537866,128.5477038,66,치과의원,권부부치과의원,"대구광역시 달서구 달구벌대로 1660, 2층 (감삼동)",응급의료기관이외,대구,053-567-2875,053-567-2875,053-567-2875,2024-05-20
35.81739386,128.5450739,67,치과의원,권순복옥치과의원,"대구광역시 달서구 상인로 122, 1층 (상인동)",응급의료기관이외,대구,053-617-2877,053-617-2877,053-617-2807,2024-05-20
35.84934214,128.5339233,68,치과의원,권앤김플란트치과의원,"대구광역시 달서구 달구벌대로 1530, 301동 309호 (감삼동)",응급의료기관이외,대구,053-567-2275,053-567-2275,053-566-2275,2024-05-20
35.83781625,128.557224,69,치과의원,권치과의원,대구광역시 달서구 성당로 1 (성당동),응급의료기관이외,대구,053-652-9432,053-652-9432,053-652-9432,2024-05-20
35.81321984,128.5209329,70,치과의원,그랜드치과의원,"대구광역시 달서구 월배로 58, 4층 (진천동)",응급의료기관이외,대구,053-633-2875,053-633-2875,053-633-2876,2024-05-20
35.85779091,128.5291084,71,치과의원,길치과의원,대구광역시 달서구 용산서로 14 (용산동),응급의료기관이외,대구,053-521-2275,053-521-2275,053-635-2875,2024-05-20
35.8077806,128.5301145,72,치과의원,김병삼치과의원,"대구광역시 달서구 한실로 27 (도원동, 나래마을상가)",응급의료기관이외,대구,053-642-9522,053-642-9522,053-635-2875,2024-05-20
35.85920611,128.5627219,73,치과의원,김석호치과의원,"대구광역시 달서구 달구벌대로 1808, 2층 (두류동)",응급의료기관이외,대구,053-555-2855,053-555-2855,053-566-2855,2024-05-20
35.85048245,128.5719929,74,치과의원,김성진치과의원,"대구광역시 달서구 성당로 195, 3층 (성당동)",응급의료기관이외,대구,053-624-2755,053-624-2755,053-622-2754,2024-05-20
35.84526642,128.544324,75,치과의원,김소진치과의원,"대구광역시 달서구 당산로 87, (감삼동)",응급의료기관이외,대구,053-611-2875,053-611-2875,053-572-2875,2024-05-20
35.85533013,128.495412,76,치과의원,김승민치과의원,대구광역시 달서구 계대동문로 30 (신당동),응급의료기관이외,대구,053-584-6512,053-584-6512,,2024-05-20
35.83744891,128.5489306,77,치과의원,김영재치과의원,대구광역시 달서구 구마로 193 (성당동),응급의료기관이외,대구,053-623-7051,053-623-7051,053-654-2875,2024-05-20
35.80693632,128.5375445,78,치과의원,김종원치과의원,대구광역시 달서구 한실로 99 (도원동),응급의료기관이외,대구,053-632-2804,053-632-2804,053-632-2805,2024-05-20
35.83763366,128.5420026,79,치과의원,김종환치과의원,대구광역시 달서구 구마로 131 (본리동),응급의료기관이외,대구,053-527-2875,053-527-2875,053-526-2875,2024-05-20
35.83161796,128.5307715,80,치과의원,김창희치과의원,"대구광역시 달서구 월성로 42, 204호 (월성동)",응급의료기관이외,대구,053-644-2754,053-644-2754,053-638-2754,2024-05-20
35.85501535,128.5123939,81,치과의원,노치과의원,"대구광역시 달서구 이곡공원로 46, 2층 (이곡동)",응급의료기관이외,대구,053-588-2875,053-588-2875,053-588-2876,2024-05-20
35.81589672,128.5291837,82,치과의원,늘곁에구강내과치과의원,대구광역시 달서구 월배로 137 (진천동),응급의료기관이외,대구,053-719-3232,053-719-3232,053-719-3233,2024-05-20
35.84308719,128.5418959,83,치과의원,늘봄치과의원,"대구광역시 달서구 장기로 167, 223동 206호 (본리동)",응급의료기관이외,대구,053-551-2275,053-551-2275,053-551-2276,2024-05-20
35.82519371,128.5463226,84,치과의원,니즈연합치과의원,대구광역시 달서구 월배로 331 (송현동),응급의료기관이외,대구,053-622-2874,053-622-2874,053-622-1910,2024-05-20
35.81414241,128.5222669,85,치과의원,다인치과의원,"대구광역시 달서구 월배로 71 (진천동, 트윈팰리스상가)",응급의료기관이외,대구,053-643-2879,053-643-2879,053-643-2801,2024-05-20
35.8153036,128.5205482,86,치과의원,달서참조은치과의원,대구광역시 달서구 진천로23길 70 (대천동),응급의료기관이외,대구,053-643-2825,053-643-2825,053-643-2827,2024-05-20
35.81496073,128.5268204,87,치과의원,달서치과의원,대구광역시 달서구 월배로 113 (진천동),응급의료기관이외,대구,053-632-2667,053-632-2667,053-641-2804,2024-05-20
35.80731242,128.5340615,88,치과의원,대곡더좋은치과의원,"대구광역시 달서구 한실로 67, 2층 (도원동)",응급의료기관이외,대구,053-635-2875,053-635-2875,053-635-2876,2024-05-20
35.80723419,128.5354331,89,치과의원,대곡치과의원,"대구광역시 달서구 도원로 30, 302호 (도원동, 대곡프라자)",응급의료기관이외,대구,053-638-9600,053-638-9600,053-638-9601,2024-05-20
35.8398497,128.5442648,90,치과의원,대구민치과의원,"대구광역시 달서구 당산로 27, 카동 201호 (본리동)",응급의료기관이외,대구,053-524-7722,053-524-7722,053-524-7723,2024-05-20
35.8571589,128.5308075,91,치과의원,대구본플란트치과의원,"대구광역시 달서구 용산로 220, 4층 (용산동)",응급의료기관이외,대구,053-269-2828,053-269-2828,053-269-2928,2024-05-20
35.81623903,128.5312664,92,치과의원,대구심플라인치과의원,"대구광역시 달서구 월배로 156, 5층 (상인동)",응급의료기관이외,대구,053-637-0077,053-637-0077,053-634-0055,2024-05-20
35.85515612,128.5047111,93,치과의원,대구에스치과의원,대구광역시 달서구 달구벌대로251길 33 (이곡동),응급의료기관이외,대구,053-586-7575,053-586-7575,053-586-8899,2024-05-20
35.85394679,128.5461771,94,치과의원,더원연합치과의원,"대구광역시 달서구 달구벌대로 1647, 더원정형외과 7층 (감삼동)",응급의료기관이외,대구,053-523-2800,053-523-2800,,2024-05-20
35.81392961,128.5214576,95,치과의원,더원치과의원,"대구광역시 달서구 월배로 63, 3층 (진천동)",응급의료기관이외,대구,053-632-3100,053-632-3100,053-632-3100,2024-05-20
35.83686255,128.547067,96,치과의원,도기용치과의원,대구광역시 달서구 구마로 176 (본동),응급의료기관이외,대구,053-656-2875,053-656-2875,053-626-3397,2024-05-20
35.85417785,128.5488691,97,치과의원,도치과의원,대구광역시 달서구 달구벌대로 1670 (두류동),응급의료기관이외,대구,053-552-1250,053-552-1250,053-552-1257,2024-05-20
35.81330797,128.5456988,98,치과의원,동서연합치과의원,"대구광역시 달서구 상화북로 185, 301호 (상인동)",응급의료기관이외,대구,053-636-6777,053-636-6777,053-636-6797,2024-05-20
35.81688208,128.5325986,99,치과의원,디지털온치과의원,"대구광역시 달서구 월배로 170, 5,7층 (상인동)",응급의료기관이외,대구,053-642-1600,053-642-1600,053-638-1650,2024-05-20
35.8510425?128.5375312,,100,치과의원,똑디치과의원,"대구광역시 달서구 와룡로 206, 4층층 (죽전동)",응급의료기관이외,대구,053-563-7980,053-563-7980,053-522-7980,2024-05-20
35.85502574,128.5120729,101,치과의원,라임치과의원,대구광역시 달서구 이곡공원로 42 (이곡동),응급의료기관이외,대구,053-587-2875,053-587-2875,053-587-2876,2024-05-20
35.81758446,128.5327472,102,치과의원,램브란트치과의원 상인점,"대구광역시 달서구 월배로 175, 6층 (상인동)",응급의료기관이외,대구,053-643-2875,053-643-2875,053-643-2877,2024-05-20
35.80965517,128.5135954,103,치과의원,로뎀치과의원,"대구광역시 달서구 비슬로 2728, 2층 (대곡동)",응급의료기관이외,대구,053-637-5080,053-637-5080,053-635-9080,2024-05-20
35.821599,128.5207763,104,치과의원,로즈치과교정과치과의원,"대구광역시 달서구 조암로 5, 504, 505호 (월성동)",응급의료기관이외,대구,053-637-2275,053-637-2275,053-637-2275,2024-05-20
35.80717774,128.5359638,105,치과의원,로하스치과의원,대구광역시 달서구 도원로 29 (도원동),응급의료기관이외,대구,053-633-8024,053-633-8024,053-633-8024,2024-05-20
35.81834314,128.5344233,106,치과의원,리더스치과의원,"대구광역시 달서구 월배로 191, 2층 (상인동)",응급의료기관이외,대구,053-643-2804,053-643-2804,053-643-2806,2024-05-20
35.81855456,128.5355203,107,치과의원,맥앤정인치과의원,대구광역시 달서구 월배로 201 (상인동),응급의료기관이외,대구,053-626-7575,053-626-7575,053-636-6575,2024-05-20
35.80760993,128.5360663,108,치과의원,메디안연합치과의원,"대구광역시 달서구 도원로 23, 2층 (도원동)",응급의료기관이외,대구,053-638-2662,053-638-2662,053-638-2668,2024-05-20
35.85427987,128.5094331,109,치과의원,명문치과의원,대구광역시 달서구 이곡동로 17 (이곡동),응급의료기관이외,대구,053-583-3100,053-583-3100,053-583-5967,2024-05-20
35.82426708,128.5257753,110,치과의원,미뉴치과교정과치과의원,"대구광역시 달서구 조암로 41, 401호 (월성동)",응급의료기관이외,대구,053-710-2885,053-710-2885,053-710-2886,2024-05-20
35.85848585,128.5309399,111,치과의원,미담치과의원,"대구광역시 달서구 용산로 236, 5층 (용산동)",응급의료기관이외,대구,053-571-2080,053-571-2080,053-571-2080,2024-05-20
35.85025339,128.4736813,112,치과의원,미라인치과의원,대구광역시 달서구 호산로 125 (파호동),응급의료기관이외,대구,053-586-7528,053-586-7528,053-586-2878,2024-05-20
35.85393449,128.5185095,113,치과의원,미부부치과의원,대구광역시 달서구 성지로 27 (용산동),응급의료기관이외,대구,053-591-2875,053-591-2875,053-591-2876,2024-05-20
35.82115374,128.5286764,114,치과의원,미소담치과의원,대구광역시 달서구 조암남로 41 (월성동),응급의료기관이외,대구,053-636-3344,053-636-3344,053-636-3368,2024-05-20
35.83547125,128.5556136,115,치과의원,미소본치과의원,"대구광역시 달서구 월배로 473, 5층 (송현동)",응급의료기관이외,대구,053-655-2855,053-655-2855,053-655-2856,2024-05-20
35.81916458,128.5218682,116,치과의원,미주치과의원,"대구광역시 달서구 진천로 120, 4층(대천동)",응급의료기관이외,대구,053-637-2804,053-637-2804,053-635-2805,2024-05-20
35.82237397,128.5479854,117,치과의원,바른길구강악안면외과치과의원,대구광역시 달서구 송현로 38,응급의료기관이외,대구,053-634-7800,053-634-7800,053-634-6887,2024-05-20
35.85508885,128.5078329,118,치과의원,바른이연합치과의원,"대구광역시 달서구 성서로 420, 메가타운 205,206호 (이곡동)",응급의료기관이외,대구,053-593-2080,053-593-2080,053-593-2081,2024-05-20
35.81866168,128.5377676,119,치과의원,바오로치과의원,"대구광역시 달서구 월배로 222, 2층 (상인동)",응급의료기관이외,대구,053-631-0009,053-631-0009,053-631-0079,2024-05-20
35.83404219,128.5488628,120,치과의원,박현탁치과의원,대구광역시 달서구 학산로 203 (송현동),응급의료기관이외,대구,053-628-3951,053-628-3951,053-628-3951,2024-05-20
35.85559881,128.5213104,121,치과의원,밝은e치과의원,대구광역시 달서구 성지로 72 (용산동),응급의료기관이외,대구,053-581-2827,053-581-2827,053-581-2827,2024-05-20
35.843353,128.536769,122,치과의원,밝은결치과의원,"대구광역시 달서구 장기로 217, 4층 (본리동)",응급의료기관이외,대구,053-716-2785,053-716-2785,053-716-2786,2024-05-20
35.85042049,128.5346501,123,치과의원,배치과의원,대구광역시 달서구 달구벌대로307길 10,응급의료기관이외,대구,053-566-7809,053-566-7809,053-566-7809,2024-05-20
35.81850138,128.5373349,124,치과의원,베스트연합치과의원,대구광역시 달서구 월배로 218 (상인동),응급의료기관이외,대구,053-643-2080,053-643-2080,053-643-2081,2024-05-20
35.81545362,128.5295127,125,치과의원,보스톤스마일치과의원,대구광역시 달서구 월배로 138,응급의료기관이외,대구,053-637-6845,053-637-6845,053-642-9877,2024-05-20
35.84334216,128.5312483,126,치과의원,본리치과의원,대구광역시 달서구 장기로 265 (장기동),응급의료기관이외,대구,053-562-2875,053-562-2875,053-522-2875,2024-05-20
35.85365234,128.5455219,127,치과의원,분도치과의원,대구광역시 달서구 달구벌대로 1641 (감삼동),응급의료기관이외,대구,053-556-0606,053-556-0606,053-561-3723,2024-05-20
35.85572805,128.5528102,128,치과의원,불꽃치과의원,"대구광역시 달서구 달구벌대로 1710, 3층 (두류동)",응급의료기관이외,대구,053-622-7528,053-622-7528,053-622-5752,2024-05-20
35.81812444,128.5389813,129,치과의원,뿌리연합치과의원,"대구광역시 달서구 월곡로 266, 3층 (상인동, 월곡빌딩)",응급의료기관이외,대구,053-631-2875,053-631-2875,053-631-1975,2024-05-20
35.85629,128.554283,130,치과의원,삼마치과의원,"대구광역시 달서구 달구벌대로 1726, 5층 (두류동)",응급의료기관이외,대구,053-421-2876,053-421-2876,053-421-2877,2024-05-20
35.85025339,128.4736813,131,치과의원,삼성제일치과의원,대구광역시 달서구 호산로 125 (파호동),응급의료기관이외,대구,053-591-7585,053-591-7585,053-591-7586,2024-05-20
35.82211981,128.5344044,132,치과의원,상인강치과의원,대구광역시 달서구 월곡로 330 (상인동),응급의료기관이외,대구,053-639-5400,053-639-5400,053-639-5405,2024-05-20
35.81802126,128.5358598,133,치과의원,상인서울치과의원,"대구광역시 달서구 월배로 202, 5층 (상인동)",응급의료기관이외,대구,053-641-2080,053-641-2080,053-641-2081,2024-05-20
35.80951414,128.5514377,134,치과의원,상인치과의원,"대구광역시 달서구 상인로 14, 202호 (상인동)",응급의료기관이외,대구,053-638-2744,053-638-2744,053-634-2744,2024-05-20
35.81870641,128.5398484,135,치과의원,상인행복을심는치과의원,대구광역시 달서구 상인서로 107,응급의료기관이외,대구,053-633-7504,053-633-7504,053-635-7504,2024-05-20
35.85500414,128.5212622,136,치과의원,샘깊은치과의원,대구광역시 달서구 성지로 66 (용산동),응급의료기관이외,대구,053-587-7528,053-587-7528,053-587-7529,2024-05-20
35.85215632,128.5434966,137,치과의원,서광치과의원,대구광역시 달서구 달구벌대로 1616,응급의료기관이외,대구,053-573-2875,053-573-2875,053-573-2876,2024-05-20
35.85441973,128.5472211,138,치과의원,서대구강연합치과의원,대구광역시 달서구 달구벌대로 1657 (감삼동),응급의료기관이외,대구,053-628-1100,053-628-1100,053-628-1110,2024-05-20
35.85546072,128.5521441,139,치과의원,서대구리더스치과의원,"대구광역시 달서구 달구벌대로 1704, 2층 (두류동)",응급의료기관이외,대구,053-587-8275,053-587-8275,053-586-7345,2024-05-20
35.81802126,128.5358598,140,치과의원,서대구아이큰숲치과의원,"대구광역시 달서구 월배로 202, 2층 (상인동, 남정빌딩)",응급의료기관이외,대구,053-637-1275,053-637-1275,,2024-05-20
35.82978675,128.5510803,141,치과의원,서대구치과의원,"대구광역시 달서구 월배로 398, 3층 (송현동)",응급의료기관이외,대구,053-623-6675,053-623-6675,053-628-1498,2024-05-20
35.85015341,128.5339066,142,치과의원,서대구탑치과의원,"대구광역시 달서구 달구벌대로 1525, 5층 501호 (죽전동)",응급의료기관이외,대구,053-556-2800,053-556-2800,053-556-2900,2024-05-20
35.80796401,128.5354933,143,치과의원,서운치과의원,대구광역시 달서구 도원로 20 (도원동),응급의료기관이외,대구,053-642-9595,053-642-9595,053-642-9506,2024-05-20
35.82482776,128.5274059,144,치과의원,서울바른플란트치과의원,"대구광역시 달서구 조암로 25, 3층 302호 (월성동)",응급의료기관이외,대구,053-632-0202,053-632-0202,053-642-0002,2024-05-20
35.85508798,128.5059064,145,치과의원,서울얀치과의원,"대구광역시 달서구 계대동문로 124, 4층 (이곡동)",응급의료기관이외,대구,053-593-9922,053-593-9922,053-593-9924,2024-05-20
35.82625298,128.5291972,146,치과의원,서울에스(S) 치과의원,"대구광역시 달서구 조암로 4, 5층 (월성동, 그루메디컬빌딩)",응급의료기관이외,대구,053-477-7575,053-477-7575,053-477-7576,2024-05-20
35.80726538,128.5345038,147,치과의원,서울치과의원,대구광역시 달서구 한실로 71 (도원동),응급의료기관이외,대구,053-641-7585,053-641-7585,053-641-0228,2024-05-20
35.82278569,128.5326271,148,치과의원,서울패밀리치과의원,"대구광역시 달서구 월곡로 341, 4층 (상인동)",응급의료기관이외,대구,053-634-2276,053-634-2276,053-634-2216,2024-05-20
35.82432872,128.5422882,149,치과의원,서치과의원,대구광역시 달서구 학산남로 90,응급의료기관이외,대구,053-642-6700,053-642-6700,053-642-6710,2024-05-20
35.81147593,128.5382391,150,치과의원,서태원치과의원,대구광역시 달서구 상화북로 117 (상인동),응급의료기관이외,대구,053-635-6799,053-635-6799,053-635-6799,2024-05-20
35.84533631,128.5448116,151,치과의원,석예치과의원,대구광역시 달서구 당산로 88 (성당동),응급의료기관이외,대구,053-653-2822,053-653-2822,053-653-2822,2024-05-20
35.8437469,128.5375056,152,치과의원,성당행복을심는치과의원,대구광역시 달서구 와룡로 124,응급의료기관이외,대구,053-526-2750,053-526-2750,053-526-2751,2024-05-20
35.85496251,128.509991,153,치과의원,성서미치과의원,"대구광역시 달서구 이곡공원로 24, 2층 (이곡동, 백암빌딩)",응급의료기관이외,대구,053-587-0873,053-587-0873,,2024-05-20
35.85238901,128.50042,154,치과의원,성서부부치과의원,대구광역시 달서구 성서서로 316 (이곡동),응급의료기관이외,대구,053-581-5199,053-581-5199,053-581-5199,2024-05-20
35.85025339,128.4736813,155,치과의원,성서연합치과의원,"대구광역시 달서구 호산로 125, 206호 (파호동, 삼성명가타운상가)",응급의료기관이외,대구,053-591-8827,053-591-8827,053-591-8827,2024-05-20
35.85056761,128.5133727,156,치과의원,성서치과의원,"대구광역시 달서구 달구벌대로 1334, 2,3층 (이곡동)",응급의료기관이외,대구,053-581-8389,053-581-8389,053-583-2875,2024-05-20
35.83120567,128.552208,157,치과의원,성심연합치과의원,대구광역시 달서구 월배로 416 (송현동),응급의료기관이외,대구,053-652-2875,053-652-2875,053-652-2876,2024-05-20
35.81472572,128.516616,158,치과의원,소나무치과의원,"대구광역시 달서구 월배로11길 33, 301동 202호 (유천동)",응급의료기관이외,대구,053-636-7585,053-636-7585,053-636-7565,2024-05-20
35.85512544,128.5055745,159,치과의원,소망연합치과의원,대구광역시 달서구 계대동문로 120 (이곡동),응급의료기관이외,대구,053-582-2875,053-582-2875,053-582-2877,2024-05-20
35.81656087,128.5132527,160,치과의원,소유치과의원,"대구광역시 달서구 조암로 185, 4층 401호 (유천동)",응급의료기관이외,대구,053-625-2080,053-625-2080,053-652-2082,2024-05-20
35.81351376,128.5460321,161,치과의원,소재정치과의원,"대구광역시 달서구 상화북로 189, 2층 (상인동)",응급의료기관이외,대구,053-638-3523,053-638-3523,053-638-3523,2024-05-20
35.82692745,128.5315813,162,치과의원,솔로몬치과의원,"대구광역시 달서구 학산로 16, 201호 (월성동)",응급의료기관이외,대구,053-634-7381,053-634-7381,053-634-7381,2024-05-20
35.81857264,128.5375235,163,치과의원,솔치과의원,대구광역시 달서구 월배로 220 (상인동),응급의료기관이외,대구,053-639-7528,053-639-7528,053-639-7529,2024-05-20
35.80079285,128.5326901,164,치과의원,수목원치과의원,"대구광역시 달서구 갈밭로 6, 대곡메디컬빌딩 4층 402호 (대곡동)",응급의료기관이외,대구,053-641-0075,053-641-0075,053-641-7075,2024-05-20
35.84945213,128.5274033,165,치과의원,스마일100치과의원,"대구광역시 달서구 달구벌대로 1467, 지하1층 (용산동)",응급의료기관이외,대구,053-561-2845,053-561-2845,,2024-05-20
35.81666535,128.5224494,166,치과의원,스마일키즈치과의원,"대구광역시 달서구 진천로 93, 애플 프라자 4층 (대천동)",응급의료기관이외,대구,053-654-2875,053-654-2875,053-564-2876,2024-05-20
35.82455093,128.5268175,167,치과의원,스마트치과의원 월성점,"대구광역시 달서구 조암로 29, 월성동이래타워 (월성동)",응급의료기관이외,대구,053-712-9990,053-712-9990,053-712-9991,2024-05-20
35.85055599,128.5365995,168,치과의원,스마트치과의원 죽전점,"대구광역시 달서구 달구벌대로 1551, 4층 (죽전동)",응급의료기관이외,대구,053-712-9900,053-712-9900,053-712-9901,2024-05-20
35.850369,128.536089,169,치과의원,스카이치과의원,"대구광역시 달서구 달구벌대로 1545, 골든뷰 메디타워 501호 (죽전동)",응급의료기관이외,대구,053-716-2875,053-716-2875,053-716-2876,2024-05-20
35.84141675,128.5445412,170,치과의원,신성치과의원,대구광역시 달서구 당산로 43 (본리동),응급의료기관이외,대구,053-526-0676,053-526-0676,053-526-0676,2024-05-20
35.85425935,128.5100197,171,치과의원,신세계치과의원,"대구광역시 달서구 이곡동로 23, 301호 (이곡동, 타임스퀘어)",응급의료기관이외,대구,053-593-2875,053-593-2875,053-593-2874,2024-05-20
35.81449849,128.5274038,172,치과의원,씨엘치과의원,"대구광역시 달서구 월배로 120, 서호메디컬타워 4층 401호 (진천동)",응급의료기관이외,대구,053-710-2080,053-710-2080,053-710-2080,2024-05-20
35.8195135,128.5387583,173,치과의원,아르미치과의원,대구광역시 달서구 월배로 233,응급의료기관이외,대구,053-633-2804,053-633-2804,053-633-2840,2024-05-20
35.82364538,128.5458914,174,치과의원,아름다운 이치과의원,대구광역시 달서구 월배로 316 (송현동),응급의료기관이외,대구,053-624-8650,053-624-8650,053-624-8651,2024-05-20
35.8177804,128.539322,175,치과의원,아세아바른이치과의원,대구광역시 달서구 월곡로 260 (상인동),응급의료기관이외,대구,053-639-7977,053-639-7977,053-638-7976,2024-05-20
35.8177804,128.539322,176,치과의원,아세아치과의원,"대구광역시 달서구 월곡로 260, 4층 (상인동)",응급의료기관이외,대구,053-638-7979,053-638-7979,053-642-5412,2024-05-20
35.85506855,128.5062384,177,치과의원,아이사랑치과의원,"대구광역시 달서구 계대동문로 126, 3층 (이곡동)",응급의료기관이외,대구,053-581-2879,053-581-2879,053-584-2879,2024-05-20
35.82981715,128.55035,178,치과의원,양정치과의원,대구광역시 달서구 월배로 393 (송현동),응급의료기관이외,대구,053-626-7525,053-626-7525,053-625-7525,2024-05-20
35.84514749,128.536718,179,치과의원,에녹치과의원,대구광역시 달서구 와룡로 139,응급의료기관이외,대구,053-525-2875,053-525-2875,053-525-2876,2024-05-20
35.80928928,128.512741,180,치과의원,에스프라임치과의원,"대구광역시 달서구 비슬로 2720, 3층 (대곡동)",응급의료기관이외,대구,053-637-4000,053-637-4000,053-637-4001,2024-05-20
35.8554115,128.5523487,181,치과의원,에스프라임치과의원 광장점,"대구광역시 달서구 달구벌대로 1706, 6층 (두류동)",응급의료기관이외,대구,053-651-7528,053-651-7528,053-653-7528,2024-05-20
35.84087668,128.5443825,182,치과의원,에이본치과의원,"대구광역시 달서구 당산로 39, 202호 (본리동, 레미안e편한세상상가)",응급의료기관이외,대구,053-524-2875,053-524-2875,053-524-2876,2024-05-20
35.81709677,128.5329653,183,치과의원,연제연합치과의원,"대구광역시 달서구 월배로 174, 4층 (상인동)",응급의료기관이외,대구,053-568-2828,053-568-2828,053-568-2879,2024-05-20
35.82875788,128.5494129,184,치과의원,예담치과의원,"대구광역시 달서구 월배로 379, 3층 (송현동)",응급의료기관이외,대구,053-654-2815,053-654-2815,053-656-3698,2024-05-20
35.85032386,128.5155632,185,치과의원,오치과의원,대구광역시 달서구 달구벌대로 1356 (이곡동),응급의료기관이외,대구,053-586-2804,053-586-2804,053-586-2805,2024-05-20
35.83417731,128.550845,186,치과의원,옥치과의원,대구광역시 달서구 구마로52안길 57 (송현동),응급의료기관이외,대구,053-624-2416,053-624-2416,053-624-2416,2024-05-20
35.8170633,128.5179812,187,치과의원,온가족연합치과의원,"대구광역시 달서구 조암남로 150, 2층 (대천동)",응급의료기관이외,대구,053-641-5580,053-641-5580,053-641-5581,2024-05-20
35.8583149,128.5308723,188,치과의원,용산미치과의원,대구광역시 달서구 용산로 232 (용산동),응급의료기관이외,대구,053-523-2833,053-523-2833,053-523-0275,2024-05-20
35.85907713,128.5297149,189,치과의원,용산박영치과의원,"대구광역시 달서구 용산로 253 (용산동, 현대우방아파트상가)",응급의료기관이외,대구,053-521-7044,053-521-7044,,2024-05-20
?35.8500307,128.533254,190,치과의원,용산에스(S)치과의원,"대구광역시 달서구 달구벌대로 1521, 7,8층 (용산동)",응급의료기관이외,대구,053-522-2828,053-522-2828,053-524-2828,2024-05-20
35.85854583,128.5213851,191,치과의원,용산연합치과의원,"대구광역시 달서구 선원로 262, 4층 (용산동)",응급의료기관이외,대구,053-581-7528,053-581-7528,053-583-7528,2024-05-20
35.850369,128.536089,192,치과의원,용산우리연합치과의원,"대구광역시 달서구 달구벌대로 1545, 골든뷰 메디타워 11층 1104호 (죽전동)",응급의료기관이외,대구,053-527-7528,053-527-7528,053-527-7529,2024-05-20
35.85697196,128.5308634,193,치과의원,용산이사랑치과의원,"대구광역시 달서구 용산로 218 (용산동, 2층)",응급의료기관이외,대구,053-523-7550,053-523-7550,053-523-7880,2024-05-20
35.85848879,128.5302756,194,치과의원,용산제일치과의원,대구광역시 달서구 용산로 235 (용산동),응급의료기관이외,대구,053-521-2875,053-521-2875,053-521-0275,2024-05-20
35.80910204,128.512264,195,치과의원,우리들치과의원,"대구광역시 달서구 비슬로 2716, 2층 (대곡동)",응급의료기관이외,대구,053-641-2828,053-641-2828,053-641-2827,2024-05-20
35.85404428,128.5485138,196,치과의원,우리아이치과의원,"대구광역시 달서구 달구벌대로 1666, 감삼스퀘어 6층 604·605호 (두류동)",응급의료기관이외,대구,053-557-1275,053-557-1275,053-557-1277,2024-05-20
35.81266296,128.5448312,197,치과의원,우리치과의원,대구광역시 달서구 월곡로 184 (상인동),응급의료기관이외,대구,053-634-2878,053-634-2878,053-632-2872,2024-05-20
35.84872724,128.5363879,198,치과의원,월드엠치과의원,대구광역시 달서구 와룡로 169,응급의료기관이외,대구,053-563-2804,053-563-2804,053-563-2814,2024-05-20
35.81816858,128.5166715,199,치과의원,월배본치과의원,"대구광역시 달서구 조암남로32길 20-4, 3층 303,304호 (대천동)",응급의료기관이외,대구,053-635-0275,053-635-0275,053-635-0275,2024-05-20
35.81909078,128.5160135,200,치과의원,월배예모아치과의원,"대구광역시 달서구 조암로 149, 대천그루타워 2층 202호 (대천동)",응급의료기관이외,대구,053-242-2875,053-242-2875,053-242-2876,2024-05-20
35.82475675,128.5251034,201,치과의원,월성수연합치과의원,"대구광역시 달서구 조암로 42, 5층 (월성동)",응급의료기관이외,대구,053-634-2080,053-634-2080,053-634-2081,2024-05-20
35.82811673,128.5316889,202,치과의원,월성우리치과의원,대구광역시 달서구 학산로7길 5 (월성동),응급의료기관이외,대구,053-634-6654,053-634-6654,053-634-6614,2024-05-20
35.82548965,128.5265138,203,치과의원,월성탑치과의원,대구광역시 달서구 조암로6길 5-5 (월성동),응급의료기관이외,대구,053-325-2828,053-325-2828,053-325-2875,2024-05-20
35.81646383,128.5211201,204,치과의원,위드치과의원,대구광역시 달서구 진천로 77,응급의료기관이외,대구,053-632-2875,053-632-2875,053-632-2866,2024-05-20
35.8501251,128.5301312,205,치과의원,유니온치과보철과치과의원,"대구광역시 달서구 용산로 141, 그랜드M 타워 7층 703호 (용산동)",응급의료기관이외,대구,053-565-2275,053-565-2275,053-563-2275,2024-05-20
35.85499501,128.5087069,206,치과의원,유디성서치과의원,"대구광역시 달서구 이곡공원로 12, 신아빌딩 2층 (이곡동)",응급의료기관이외,대구,053-586-3607,053-586-3607,053-586-3615,2024-05-20
35.82038023,128.5323786,207,치과의원,유어스치과의원,대구광역시 달서구 월배로39길 30 (상인동),응급의료기관이외,대구,053-637-0053,053-637-0053,053-637-0079,2024-05-20
35.85566336,128.5041165,208,치과의원,윤종근치과의원,대구광역시 달서구 계대동문로 99 (이곡동),응급의료기관이외,대구,053-584-2828,053-584-2828,053-586-2875,2024-05-20
35.80765094,128.5469435,209,치과의원,이가튼튼치과의원,"대구광역시 달서구 상화로 308-10, 2층 (도원동)",응급의료기관이외,대구,053-638-7766,053-638-7766,053-638-5001,2024-05-20
35.85404428,128.5485138,210,치과의원,이동식치과의원,"대구광역시 달서구 달구벌대로 1666, 감삼스퀘어 3층 305·306호 (두류동)",응급의료기관이외,대구,053-559-5088,053-559-5088,053-559-5089,2024-05-20
35.85572805,128.5528102,211,치과의원,이레불꽃치과의원,"대구광역시 달서구 달구벌대로 1710, 4층 (두류동)",응급의료기관이외,대구,053-622-5772,053-622-5772,053-622-1400,2024-05-20
35.81666535,128.5224494,212,치과의원,이롬연합치과의원,"대구광역시 달서구 진천로 93, 3층 (대천동, 애플프라자)",응급의료기관이외,대구,053-641-2275,053-641-2275,053-641-2276,2024-05-20
35.82584429,128.5278554,213,치과의원,이미지치과의원,"대구광역시 달서구 조암로 16, 4층 (월성동)",응급의료기관이외,대구,1899-8175,1899-8175,053-631-8279,2024-05-20
35.85667206,128.5552747,214,치과의원,이베스트치과의원,"대구광역시 달서구 달구벌대로 1736, 4층 (두류동)",응급의료기관이외,대구,053-653-2080,053-653-2080,053-653-2081,2024-05-20
35.82567385,128.5297136,215,치과의원,이봄치과의원,"대구광역시 달서구 조암로 1, 미래타워 2층 (월성동)",응급의료기관이외,대구,053-635-2828,053-635-2828,053-635-2827,2024-05-20
35.85683239,128.5556855,216,치과의원,이성철치과의원,"대구광역시 달서구 달구벌대로 1740, 3층 (두류동)",응급의료기관이외,대구,053-621-3289,053-621-3289,053-621-3289,2024-05-20
35.85699314,128.5560077,217,치과의원,이안치과의원,"대구광역시 달서구 달구벌대로 1744, 3층 (두류동, 우리빌딩)",응급의료기관이외,대구,053-656-2804,053-656-2804,053-656-2803,2024-05-20
35.81513031,128.5473158,218,치과의원,이왕가치과의원,대구광역시 달서구 상인로 88-1 (상인동),응급의료기관이외,대구,053-631-2828,053-631-2828,053-631-2898,2024-05-20
35.85499453,128.5066919,219,치과의원,이원식치과의원,대구광역시 달서구 성서로 419 (이곡동),응급의료기관이외,대구,053-582-3971,053-582-3971,053-583-3972,2024-05-20
35.81147593,128.5382391,220,치과의원,이원재치과의원,대구광역시 달서구 상화북로 117 (상인동),응급의료기관이외,대구,053-631-3738,053-631-3738,053-633-2578,2024-05-20
35.83564139,128.5320159,221,치과의원,이인치과의원,대구광역시 달서구 구마로14남길 60 (본동),응급의료기관이외,대구,053-527-3996,053-527-3996,053-527-3996,2024-05-20
35.81363969,128.5238681,222,치과의원,이장동치과의원,대구광역시 달서구 월배로 80 (진천동),응급의료기관이외,대구,053-636-7528,053-636-7528,070-8196-7528,2024-05-20
35.85507148,128.5034041,223,치과의원,이재환치과의원,대구광역시 달서구 계대동문로 102 (이곡동),응급의료기관이외,대구,053-585-2804,053-585-2804,053-585-2804,2024-05-20
35.82753343,128.5311094,224,치과의원,이정태치과의원,"대구광역시 달서구 학산로 17, 403호 (월성동, 월성청구코아)",응급의료기관이외,대구,053-634-2870,053-634-2870,053-633-8533,2024-05-20
35.83686375,128.5565974,225,치과의원,이정택치과의원,대구광역시 달서구 월배로 491-1 (송현동),응급의료기관이외,대구,053-625-1383,053-625-1383,053-625-1383,2024-05-20
35.81910639,128.5370845,226,치과의원,일곱가지약속치과의원,"대구광역시 달서구 월배로 219, 5층 (상인동)",응급의료기관이외,대구,053-639-2828,053-639-2828,053-638-3322,2024-05-20
35.82036146,128.5465661,227,치과의원,일리치과의원,"대구광역시 달서구 송현로7길 23, 2층 (상인동)",응급의료기관이외,대구,053-631-7522,053-631-7522,053-631-7523,2024-05-20
35.81640671,128.5300392,228,치과의원,임S플란트치과의원,"대구광역시 달서구 월배로 147, 프라임빌딩 3층 (진천동)",응급의료기관이외,대구,053-643-2822,053-643-2822,053-643-2823,2024-05-20
35.85676149,128.521318,229,치과의원,임종호치과의원,대구광역시 달서구 성지로 84 (용산동),응급의료기관이외,대구,053-588-5774,053-588-5774,053-587-5774,2024-05-20
35.84486164,128.5300629,230,치과의원,장기치과의원,대구광역시 달서구 한들로 55,응급의료기관이외,대구,053-525-1585,053-525-1585,0504-087-9983,2024-05-20
35.85257563,128.5424588,231,치과의원,정규배치과의원,대구광역시 달서구 달구벌대로 1611 (감삼동),응급의료기관이외,대구,053-552-9569,053-552-9569,053-552-9928,2024-05-20
35.82255595,128.5476104,232,치과의원,정성드림치과의원,"대구광역시 달서구 송현로 42, 3층 (송현동)",응급의료기관이외,대구,053-655-2075,053-655-2075,053-655-2076,2024-05-20
35.85421279,128.5491129,233,치과의원,정성치과의원,"대구광역시 달서구 달구벌대로 1672, 6층 (두류동)",응급의료기관이외,대구,053-621-2875,053-621-2875,053-621-2874,2024-05-20
35.81688208,128.5325986,234,치과의원,정은재바른이치과교정과치과의원,"대구광역시 달서구 월배로 170, 6층 (상인동)",응급의료기관이외,대구,053-642-1631,053-642-1631,053-638-1650,2024-05-20
35.81424022,128.5266939,235,치과의원,제일연합치과의원,"대구광역시 달서구 월배로 110, 2층 (진천동)",응급의료기관이외,대구,053-638-2875,053-638-2875,053-638-2872,2024-05-20
35.8583921,128.5398191,236,치과의원,조은에스치과의원,"대구광역시 달서구 죽전길 153, 2층 (죽전동)",응급의료기관이외,대구,053-571-0071,053-571-0071,053-571-0073,2024-05-20
35.8079343,128.5360906,237,치과의원,종합치과의원,"대구광역시 달서구 도원로 19, 5층 (도원동)",응급의료기관이외,대구,053-631-7528,053-631-7528,053-631-7528,2024-05-20
35.8138715,128.5250491,238,치과의원,주치과의원,"대구광역시 달서구 월배로 92, 6층 (진천동)",응급의료기관이외,대구,053-638-7733,053-638-7733,053-638-4177,2024-05-20
35.85015217,128.5382132,239,치과의원,죽전 에스라인치과의원,"대구광역시 달서구 달구벌대로 1564, 4층 (감삼동)",응급의료기관이외,대구,053-551-1177,053-551-1177,053-551-1178,2024-05-20
35.81330797,128.5456988,240,치과의원,지엔케이치과의원,"대구광역시 달서구 상화북로 185, 301호 (상인동)",응급의료기관이외,대구,053-636-6797,053-636-6797,053-636-6779,2024-05-20
35.85798044,128.5740952,241,치과의원,진용림치과의원,대구광역시 달서구 성당로 287 (두류동),응급의료기관이외,대구,053-625-0931,053-625-0931,053-625-0931,2024-05-20
35.84554396,128.5447355,242,치과의원,참고운치과의원,"대구광역시 달서구 당산로 90, 2층 (성당동)",응급의료기관이외,대구,053-656-2275,053-656-2275,053-656-2270,2024-05-20
35.82555017,128.5271008,243,치과의원,참바른연합치과의원,"대구광역시 달서구 조암로 24, 402호 (월성동, 한신메디타워)",응급의료기관이외,대구,053-627-2875,053-627-2875,053-627-2876,2024-05-20
35.8527355,128.5309125,244,치과의원,참행복한치과의원,대구광역시 달서구 용산로 174 (용산동),응급의료기관이외,대구,053-551-2875,053-551-2875,053-285-2875,2024-05-20
35.8142254,128.5259634,245,치과의원,청치과의원,"대구광역시 달서구 월배로 104, 2층 (진천동)",응급의료기관이외,대구,053-631-3035,053-631-3035,053-631-3035,2024-05-20
35.849966,128.538001,246,치과의원,클린치과의원,"대구광역시 달서구 와룡로 186, 307,308호 (감삼동, 빌리브 스카이 주상복합)",응급의료기관이외,대구,053-567-6500,053-567-6500,053-567-6507,2024-05-20
35.8545798,128.547701,247,치과의원,킹플란트치과의원,"대구광역시 달서구 달구벌대로 1663, 1-2층, 킹플란트치과의원 (감삼동)",응급의료기관이외,대구,053-710-0900,053-710-0900,053-710-0901,2024-05-20
35.85448216,128.5473654,248,치과의원,튼튼한치과의원,"대구광역시 달서구 달구벌대로 1659, 빌딩플러스 2층 (감삼동)",응급의료기관이외,대구,053-562-8828,053-562-8828,053-562-8827,2024-05-20
35.8542145,128.5467657,249,치과의원,퍼스트치과의원,대구광역시 달서구 달구벌대로 1653,응급의료기관이외,대구,053-552-0300,053-552-0300,053-552-0309,2024-05-20
35.8166352,128.5323817,250,치과의원,편안수치과의원,"대구광역시 달서구 월배로 168, 아보스타워 2층 (상인동)",응급의료기관이외,대구,053-641-0220,053-641-0220,053-631-0222,2024-05-20
35.82254091,128.5449763,251,치과의원,편한e치과의원,"대구광역시 달서구 송현로7길 10, 1222동 2층 203호 (상인동, 상인화성파크드림1단지아파트)",응급의료기관이외,대구,053-632-1888,053-632-1888,053-632-1887,2024-05-20
35.85095223,128.5077179,252,치과의원,평화치과의원,대구광역시 달서구 성서로 374 (이곡동),응급의료기관이외,대구,053-588-2187,053-588-2187,053-588-2188,2024-05-20
35.81985558,128.5307704,253,치과의원,프라임치과의원,대구광역시 달서구 상원로 128 (상인동),응급의료기관이외,대구,053-628-2875,053-628-2875,053-635-2874,2024-05-20
35.85383073,128.5459327,254,치과의원,플러스진치과의원,"대구광역시 달서구 달구벌대로 1643, 3층 (감삼동)",응급의료기관이외,대구,053-551-7696,053-551-7696,053-557-7696,2024-05-20
35.81730156,128.533531,255,치과의원,플러스치과의원,대구광역시 달서구 월배로 180 (상인동),응급의료기관이외,대구,053-634-9595,053-634-9595,053-634-9596,2024-05-20
35.81408573,128.522864,256,치과의원,필립치과의원,대구광역시 달서구 월배로 77,응급의료기관이외,대구,053-644-1200,053-644-1200,053-644-1215,2024-05-20
35.85495822,128.5109985,257,치과의원,필치과의원,대구광역시 달서구 이곡공원로 32 (이곡동),응급의료기관이외,대구,053-568-2080,053-568-2080,053-568-2081,2024-05-20
35.84811532,128.5280476,258,치과의원,하나연합치과의원,대구광역시 달서구 한들로 23 (장기동),응급의료기관이외,대구,053-568-2875,053-568-2875,053-568-2876,2024-05-20
35.85509689,128.5037918,259,치과의원,하얀미소연합치과의원,대구광역시 달서구 계대동문로 106 (이곡동),응급의료기관이외,대구,053-582-7528,053-582-7528,070-4275-5828,2024-05-20
35.83016759,128.5505848,260,치과의원,하얀치과의원,대구광역시 달서구 월배로 397 (송현동),응급의료기관이외,대구,053-656-7528,053-656-7528,053-652-7528,2024-05-20
35.86108125,128.5721578,261,치과의원,한독치과의원,"대구광역시 달서구 명덕로 10, (두류동)",응급의료기관이외,대구,053-629-3370,053-629-3370,053-625-3311,2024-05-20
35.85496869,128.5106554,262,치과의원,한마음연합치과의원,대구광역시 달서구 이곡공원로 28 (이곡동),응급의료기관이외,대구,053-585-9100,053-585-9100,053-585-9109,2024-05-20
35.84962944,128.5301168,263,치과의원,한진욱치과의원,대구광역시 달서구 달구벌대로 1491 (용산동),응급의료기관이외,대구,053-524-2804,053-524-2804,053-524-2803,2024-05-20
35.83722401,128.5566553,264,치과의원,홍동대치과의원,대구광역시 달서구 구마로 264 (송현동),응급의료기관이외,대구,053-621-3412,053-621-3412,053-621-2829,2024-05-20
35.84373028,128.545177,265,치과의원,황준치과의원,대구광역시 달서구 장기로 140 (성당동),응급의료기관이외,대구,053-653-3473,053-653-3473,053-653-3473,2024-05-20
35.81909078,128.5160135,266,한의원,365봄날한의원,"대구광역시 달서구 조암로 149, 201호 (대천동)",응급의료기관이외,대구,053-633-3633,053-633-3633,053-633-3666,2024-05-20
35.85912681,128.5623338,267,한의원,가야한의원,"대구광역시 달서구 달구벌대로 1804, 2층 (두류동)",응급의료기관이외,대구,053-629-8275,053-629-8275,053-629-8275,2024-05-20
35.8580446,128.5308484,268,한의원,가온한의원,대구광역시 달서구 용산로 230 (용산동),응급의료기관이외,대구,053-568-1275,053-568-1275,053-568-1276,2024-05-20
35.83099396,128.527159,269,한의원,갑을한의원,대구광역시 달서구 월성로 74 (월성동),응급의료기관이외,대구,053-642-5275,053-642-5275,053-642-5275,2024-05-20
35.85503763,128.5113976,270,한의원,강한의원,"대구광역시 달서구 이곡공원로 36, 2층 (이곡동)",응급의료기관이외,대구,053-588-1775,053-588-1775,053-588-1776,2024-05-20
35.81651286,128.5425779,271,한의원,거북이한의원,"대구광역시 달서구 상인서로 76, 203호 (상인동, 영남화성타운상가)",응급의료기관이외,대구,053-642-7585,053-642-7585,053-642-7589,2024-05-20
35.82625298,128.5291972,272,한의원,경희몸편한한의원,"대구광역시 달서구 조암로 4, 6층 601호 (월성동)",응급의료기관이외,대구,053-636-7000,053-636-7000,053-636-7099,2024-05-20
35.84934214,128.5339233,273,한의원,계해정한의원,"대구광역시 달서구 달구벌대로 1530, 301동 304호 (감삼동)",응급의료기관이외,대구,053-582-2666,053-582-2666,053-586-1275,2024-05-20
35.80717774,128.5359638,274,한의원,고금당한의원,대구광역시 달서구 도원로 29 (도원동),응급의료기관이외,대구,053-633-7100,053-633-7100,053-633-7101,2024-05-20
35.81125581,128.5370757,275,한의원,고려한의원,"대구광역시 달서구 상화북로 100, 1층 (상인동)",응급의료기관이외,대구,053-641-7566,053-641-7566,053-641-7564,2024-05-20
35.85533013,128.495412,276,한의원,관덕한의원,대구광역시 달서구 계대동문로 30 (신당동),응급의료기관이외,대구,053-581-9988,053-581-9988,053-581-9986,2024-05-20
35.81414241,128.5222669,277,한의원,광동한의원,"대구광역시 달서구 월배로 71, 305,306호 (진천동, 진천트윈팰리스)",응급의료기관이외,대구,053-557-1075,053-557-1075,053-553-1075,2024-05-20
35.84798669,128.5326742,278,한의원,광산한의원,대구광역시 달서구 달구벌대로304길 39 (감삼동),응급의료기관이외,대구,053-567-9489,053-567-9489,053-567-9489,2024-05-20
35.81433551,128.5357022,279,한의원,금강한의원,대구광역시 달서구 상원로 50 (상인동),응급의료기관이외,대구,053-641-8275,053-641-8275,053-641-8275,2024-05-20
35.84320817,128.5489815,280,한의원,금성한의원,"대구광역시 달서구 장기로 105, 3층 (성당동)",응급의료기관이외,대구,053-629-1288,053-629-1288,053-655-1288,2024-05-20
35.80079285,128.5326901,281,한의원,금송한의원,"대구광역시 달서구 갈밭로 6, 3층 301호 (대곡동)",응급의료기관이외,대구,053-637-5223,053-637-5223,053-634-5223,2024-05-20
35.8115427,128.5374207,282,한의원,금조한의원,"대구광역시 달서구 상화북로 101, 2층 (상인동)",응급의료기관이외,대구,053-634-8276,053-634-8276,053-634-8273,2024-05-20
35.81147593,128.5382391,283,한의원,길상한의원,"대구광역시 달서구 상화북로 117, 12동 202호 (상인동, 우방청자아파트상가)",응급의료기관이외,대구,053-636-6316,053-636-6316,,2024-05-20
35.85512544,128.5055745,284,한의원,김기호한의원,"대구광역시 달서구 계대동문로 120, 5층 (이곡동)",응급의료기관이외,대구,053-746-0074,053-746-0074,053-746-9393,2024-05-20
35.82555017,128.5271008,285,한의원,김민부한의원,"대구광역시 달서구 조암로 24, 404호 (월성동, 한신메디타워)",응급의료기관이외,대구,053-641-1275,053-641-1275,053-641-1276,2024-05-20
35.82753343,128.5311094,286,한의원,김인섭한의원,대구광역시 달서구 학산로 17 (월성동),응급의료기관이외,대구,053-641-5566,053-641-5566,053-641-5566,2024-05-20
35.85653154,128.5076982,287,한의원,김종봉한의원,대구광역시 달서구 성서로 436 (이곡동),응급의료기관이외,대구,053-584-7800,053-584-7800,053-584-7801,2024-05-20
35.85505086,128.5511115,288,한의원,노한의원,대구광역시 달서구 달구벌대로 1692 (두류동),응급의료기관이외,대구,053-622-4182,053-622-4182,053-622-4182,2024-05-20
35.80695534,128.5373233,289,한의원,다정한의원,"대구광역시 달서구 한실로 97, 2층 (도원동)",응급의료기관이외,대구,053-633-8575,053-633-8575,053-633-3575,2024-05-20
35.85125915,128.5076091,290,한의원,달구벌한의원,대구광역시 달서구 달구벌대로 1282 (이곡동),응급의료기관이외,대구,053-584-1807,053-584-1807,053-584-1845,2024-05-20
35.81855456,128.5355203,291,한의원,달서함소아한의원,"대구광역시 달서구 월배로 201, 1층 (상인동)",응급의료기관이외,대구,053-551-1075,053-551-1075,053-637-1073,2024-05-20
35.85373328,128.5475374,292,한의원,대건한의원,"대구광역시 달서구 달구벌대로 1658, 2층 (감삼동)",응급의료기관이외,대구,053-568-5568,053-568-5568,053-710-7215,2024-05-20
35.81891491,128.5212469,293,한의원,대구경희한의원,"대구광역시 달서구 진천로 117, 2층 (대천동)",응급의료기관이외,대구,053-636-3131,053-636-3131,053-636-3727,2024-05-20
35.85400877,128.5464211,294,한의원,대나무한의원,"대구광역시 달서구 달구벌대로 1649, 3층 (감삼동)",응급의료기관이외,대구,053-553-1523,053-553-1523,053-554-1523,2024-05-20
35.82358041,128.5343036,295,한의원,대선한의원,"대구광역시 달서구 월곡로 320, 304호 (상인동, 보성은하상가)",응급의료기관이외,대구,053-634-7508,053-634-7508,053-635-7508,2024-05-20
35.83751787,128.5496174,296,한의원,대송한의원,대구광역시 달서구 구마로 199 (성당동),응급의료기관이외,대구,053-625-6056,053-625-6056,053-655-0107,2024-05-20
35.795368,128.549434,297,한의원,대활한의원,"대구광역시 달서구 수밭길 77, 2층 (도원동)",응급의료기관이외,대구,053-638-6964,053-638-6964,053-638-6962,2024-05-20
35.85508798,128.5059064,298,한의원,더나은365한의원,"대구광역시 달서구 계대동문로 124, 2층 (이곡동)",응급의료기관이외,대구,053-581-0175,053-581-0175,053-582-0175,2024-05-20
35.8064448,128.5353843,299,한의원,더나은365한의원 대곡도원점,"대구광역시 달서구 도원로 36, 2층 (도원동)",응급의료기관이외,대구,053-710-3653,053-710-3653,053-710-3652,2024-05-20
35.85448216,128.5473654,300,한의원,더조은와이한의원,"대구광역시 달서구 달구벌대로 1659, 4층 (감삼동)",응급의료기관이외,대구,053-563-1729,053-563-1729,053-564-1729,2024-05-20
35.8577651,128.5308687,301,한의원,더편한한의원,"대구광역시 달서구 용산로 226, 2,3,4층 (용산동)",응급의료기관이외,대구,053-522-1075,053-522-1075,070-7882-9767,2024-05-20
35.85514989,128.5530941,302,한의원,도규한의원,대구광역시 달서구 달구벌대로344길 25 (두류동),응급의료기관이외,대구,053-653-8275,053-653-8275,0303-0653-8275,2024-05-20
35.83547125,128.5556136,303,한의원,도옴한의원,"대구광역시 달서구 월배로 473, 2층 201-1호 (송현동)",응급의료기관이외,대구,053-592-0877,053-592-0877,053-593-0877,2024-05-20
35.850369,128.536089,304,한의원,도해한의원,"대구광역시 달서구 달구벌대로 1545, 골든뷰 메디타워 405호 (죽전동)",응급의료기관이외,대구,053-568-1075,053-568-1075,053-568-1076,2024-05-20
35.86160717,128.5714972,305,한의원,동인당한의원,"대구광역시 달서구 달구벌대로 1892 (두류동,(1층))",응급의료기관이외,대구,053-626-8275,053-626-8275,053-626-8276,2024-05-20
35.81640671,128.5300392,306,한의원,동인두한의원,"대구광역시 달서구 월배로 147 (진천동,(2층))",응급의료기관이외,대구,053-644-2475,053-644-2475,053-423-2475,2024-05-20
35.85275448,128.5407772,307,한의원,동일한의원,대구광역시 달서구 죽전길 21 (죽전동),응급의료기관이외,대구,053-559-7289,053-559-7289,053-552-8800,2024-05-20
35.84385212,128.5321041,308,한의원,동화당한의원,"대구광역시 달서구 장기로 258, 2층 (장기동)",응급의료기관이외,대구,053-573-1075,053-573-1075,053-573-1076,2024-05-20
35.82199274,128.5485694,309,한의원,드림부부한의원,"대구광역시 달서구 송현로 32, 2층 (송현동)",응급의료기관이외,대구,053-623-1034,053-623-1034,053-623-1035,2024-05-20
35.84533631,128.5448116,310,한의원,류정화한의원,"대구광역시 달서구 당산로 88, 4층 (성당동)",응급의료기관이외,대구,053-627-1075,053-627-1075,053-627-1075,2024-05-20
35.84696524,128.5453542,311,한의원,마디와맵시효도한의원,"대구광역시 달서구 당산로 110, 2~3층 (성당동)",응급의료기관이외,대구,053-656-7707,053-656-7707,053-656-7706,2024-05-20
35.80704047,128.5364276,312,한의원,만수한의원,"대구광역시 달서구 한실로 89, 2층 (도원동)",응급의료기관이외,대구,053-639-3383,053-639-3383,053-639-3383,2024-05-20
35.82115374,128.5286764,313,한의원,맘편한윤호준한의원,"대구광역시 달서구 조암남로 41, 3층 (월성동)",응급의료기관이외,대구,053-632-5566,053-632-5566,053-636-1515,2024-05-20
35.81519129,128.5438194,314,한의원,명문당한의원,"대구광역시 달서구 상인서로 46, 110동 202호 (상인동, 상인서한상가)",응급의료기관이외,대구,053-639-1075,053-639-1075,053-637-1075,2024-05-20
35.85393449,128.5185095,315,한의원,명선한의원,"대구광역시 달서구 성지로 27, 401호 (용산동)",응급의료기관이외,대구,053-585-1075,053-585-1075,053-585-1015,2024-05-20
35.84087668,128.5443825,316,한의원,명성한의원,대구광역시 달서구 당산로 39 (본리동),응급의료기관이외,대구,053-524-8291,053-524-8291,053-356-6126,2024-05-20
35.85854583,128.5213851,317,한의원,명인한의원,대구광역시 달서구 선원로 262 (용산동),응급의료기관이외,대구,053-583-1185,053-583-1185,0508-9555-8012,2024-05-20
35.81758446,128.5327472,318,한의원,미올한의원,"대구광역시 달서구 월배로 175, 501호 (상인동, 우리빌딩)",응급의료기관이외,대구,053-631-1075,053-631-1075,053-638-3993,2024-05-20
35.83032758,128.531106,319,한의원,바로한의원,"대구광역시 달서구 학산로7길 27, 1층 101호 (월성동, 월성보성아파트2단지)",응급의료기관이외,대구,053-636-3800,053-636-3800,053-636-3801,2024-05-20
35.81758446,128.5327472,320,한의원,바른손한의원,"대구광역시 달서구 월배로 175, 4층 402호 (상인동)",응급의료기관이외,대구,053-636-1071,053-636-1071,053-636-1073,2024-05-20
35.84087668,128.5443825,321,한의원,박성후한의원,"대구광역시 달서구 당산로 39, 224동 206호 (본리동)",응급의료기관이외,대구,053-563-3001,053-563-3001,053-289-1770,2024-05-20
35.81330797,128.5456988,322,한의원,백천침구과한의원,"대구광역시 달서구 상화북로 185, 201호 (상인동)",응급의료기관이외,대구,053-634-7585,053-634-7585,053-634-7595,2024-05-20
35.83736517,128.5514649,323,한의원,벧엘한의원,대구광역시 달서구 구마로 217,응급의료기관이외,대구,053-423-0460,053-423-0460,053-425-5115,2024-05-20
35.84280755,128.5339126,324,한의원,보광한의원,대구광역시 달서구 용산로14길 60-4,응급의료기관이외,대구,053-522-6200,053-522-6200,070-8196-6201,2024-05-20
35.85441973,128.5472211,325,한의원,보람한의원,"대구광역시 달서구 달구벌대로 1657, 2층 (감삼동)",응급의료기관이외,대구,053-567-2233,053-567-2233,053-567-7979,2024-05-20
35.81728008,128.5322804,326,한의원,보명한의원,"대구광역시 달서구 월배로 169, 3층 (진천동)",응급의료기관이외,대구,053-635-1188,053-635-1188,053-635-1189,2024-05-20
35.85241525,128.5420481,327,한의원,보생조한의원,"대구광역시 달서구 달구벌대로 1607, 1층 (감삼동)",응급의료기관이외,대구,053-564-0401,053-564-0401,053-557-4053,2024-05-20
35.85136854,128.5732946,328,한의원,보성한의원,대구광역시 달서구 성당로 213 (두류동),응급의료기관이외,대구,053-656-3266,053-656-3266,053-629-3300,2024-05-20
35.84334216,128.5312483,329,한의원,본한의원,"대구광역시 달서구 장기로 265, 2층 (장기동)",응급의료기관이외,대구,053-521-8600,053-521-8600,053-555-0050,2024-05-20
35.80796401,128.5354933,330,한의원,비비통김근모한의원,대구광역시 달서구 도원로 20 (도원동),응급의료기관이외,대구,053-642-6494,053-642-6494,053-642-6495,2024-05-20
35.821599,128.5207763,331,한의원,빌리브한의원,"대구광역시 달서구 조암로 5, 401,402호 (월성동)",응급의료기관이외,대구,053-710-7588,053-710-7588,053-710-8288,2024-05-20
35.85259855,128.4777916,332,한의원,삼성한의원,"대구광역시 달서구 호산로 143, 2층 (파호동)",응급의료기관이외,대구,053-588-9977,053-588-9977,050-4070-1075,2024-05-20
35.85639614,128.5545199,333,한의원,삼주한의원,대구광역시 달서구 달구벌대로 1728 (두류동),응급의료기관이외,대구,053-623-7171,053-623-7171,053-623-7191,2024-05-20
35.85602404,128.4954385,334,한의원,상원한의원,대구광역시 달서구 서당로 47 (신당동),응급의료기관이외,대구,053-586-0467,053-586-0467,,2024-05-20
35.81910639,128.5370845,335,한의원,상인월드연합한의원,"대구광역시 달서구 월배로 219, 303호 (상인동)",응급의료기관이외,대구,053-638-8271,053-641-8775,053-638-8272,2024-05-20
35.81834314,128.5344233,336,한의원,상인청담한의원,"대구광역시 달서구 월배로 191, 3층 (상인동)",응급의료기관이외,대구,053-643-1075,053-643-1075,053-634-7510,2024-05-20
35.821666,128.533401,337,한의원,상인탑한의원,"대구광역시 달서구 월서로 14, 131동 201호 (상인동, 상인역 e-편한세상 1단지)",응급의료기관이외,대구,053-637-1778,053-637-1778,,2024-05-20
35.85365234,128.5455219,338,한의원,서남한의원,대구광역시 달서구 달구벌대로 1641 (감삼동),응급의료기관이외,대구,053-561-8868,053-561-8868,053-559-3314,2024-05-20
35.850369,128.536089,339,한의원,서재한의원,"대구광역시 달서구 달구벌대로 1545, 골든뷰 메디타워 6층 605호 (죽전동)",응급의료기관이외,대구,053-587-7975,053-587-7975,053-587-7976,2024-05-20
35.82552669,128.5464356,340,한의원,서진한의원,"대구광역시 달서구 월배로 335, 1층 (송현동)",응급의료기관이외,대구,053-651-8688,053-651-8688,053-651-8688,2024-05-20
35.85508885,128.5078329,341,한의원,석한의원,"대구광역시 달서구 성서로 420, 204호 (이곡동, 성서메가타운)",응급의료기관이외,대구,053-586-8575,053-586-8575,053-587-8575,2024-05-20
35.82176054,128.5280164,342,한의원,선재한의원,"대구광역시 달서구 조암남로 42, 305호 (월성동)",응급의료기관이외,대구,053-635-6456,053-635-6456,053-289-9964,2024-05-20
35.80861844,128.5521729,343,한의원,성심한의원,"대구광역시 달서구 상화로 371, 110동 105호 (상인동, 비둘기아파트상가)",응급의료기관이외,대구,053-632-6275,053-632-6275,053-632-6275,2024-05-20
35.8230914,128.5468062,344,한의원,성원한의원,"대구광역시 달서구 송현로 52, 1층 (송현동)",응급의료기관이외,대구,053-651-3733,053-651-3733,053-654-3733,2024-05-20
35.85979242,128.5645419,345,한의원,성제국한의원,"대구광역시 달서구 달구벌대로 1826, 2층 (두류동)",응급의료기관이외,대구,053-256-4962,053-256-4962,053-257-4962,2024-05-20
35.85159523,128.5479544,346,한의원,성주한의원,"대구광역시 달서구 당산로 165, 1층 (감삼동)",응급의료기관이외,대구,053-559-0904,053-559-0904,053-556-0904,2024-05-20
35.82651348,128.5314346,347,한의원,세도나한의원,"대구광역시 달서구 학산로 14, A동 202호 (월성동)",응급의료기관이외,대구,053-635-7510,053-635-7510,053-637-7512,2024-05-20
35.8267242,128.5481327,348,한의원,세인한의원,"대구광역시 달서구 월배로 328, 1, 2층 (송현동)",응급의료기관이외,대구,053-635-7510,053-635-7510,053-637-7512,2024-05-20
35.83611,128.556119,349,한의원,소생한의원,"대구광역시 달서구 월배로 481 (송현동,(2층))",응급의료기관이외,대구,053-657-1235,053-657-1235,053-657-1257,2024-05-20
35.82034148,128.532987,350,한의원,소예랑한의원,"대구광역시 달서구 월배로39길 26, 301동 201호 (상인동, KCC스위첸)",응급의료기관이외,대구,053-641-0098,053-641-0098,053-641-0067,2024-05-20
35.81579851,128.5289728,351,한의원,손모아한의원,"대구광역시 달서구 월배로 135, 2층 (진천동, 고은빌딩)",응급의료기관이외,대구,053-643-5775,053-643-5775,053-643-5776,2024-05-20
35.86088118,128.568746,352,한의원,손채형한의원,대구광역시 달서구 달구벌대로 1864 (두류동),응급의료기관이외,대구,053-625-6253,053-625-6253,053-253-3133,2024-05-20
35.8140865,128.522687,353,한의원,손한의원,대구광역시 달서구 월배로 75 (진천동),응급의료기관이외,대구,053-633-0156,053-633-0156,053-632-0090,2024-05-20
35.83052226,128.5518601,354,한의원,송현한의원,"대구광역시 달서구 월배로 408, 1층 (송현동)",응급의료기관이외,대구,053-653-1075,053-653-1075,053-653-1076,2024-05-20
35.83456585,128.536724,355,한의원,수민제세한의원,대구광역시 달서구 와룡로 23 (본동),응급의료기관이외,대구,053-527-8687,053-527-8687,053-527-8688,2024-05-20
35.82736263,128.5490159,356,한의원,수정한의원,"대구광역시 달서구 월배로 364-1, 2층 (송현동)",응급의료기관이외,대구,053-628-2585,053-628-2585,053-625-9197,2024-05-20
35.85378067,128.4995541,357,한의원,수제통한의원,대구광역시 달서구 신당로 63 (신당동),응급의료기관이외,대구,053-591-8700,053-591-8700,053-591-8701,2024-05-20
35.82596896,128.5281993,358,한의원,순수의뜰한의원,"대구광역시 달서구 조암로 14, 4층 403호 (월성동)",응급의료기관이외,대구,053-623-2475,053-638-1275,053-638-5275,2024-05-20
35.83673875,128.556342,359,한의원,신강한의원,"대구광역시 달서구 월배로 489, 1층 (송현동)",응급의료기관이외,대구,053-655-7582,053-655-7582,053-655-7583,2024-05-20
35.84141675,128.5445412,360,한의원,신앤박한의원,"대구광역시 달서구 당산로 43, 2층 (본리동)",응급의료기관이외,대구,053-524-3375,053-524-3375,053-524-3376,2024-05-20
35.82502825,128.5470298,361,한의원,신한의원,대구광역시 달서구 월배로 334 (송현동),응급의료기관이외,대구,053-624-8688,053-624-8688,053-628-9634,2024-05-20
35.85581736,128.552988,362,한의원,아하한의원,대구광역시 달서구 달구벌대로 1712 (두류동),응급의료기관이외,대구,053-651-2121,053-651-2121,053-651-2122,2024-05-20
35.8481144,128.5282579,363,한의원,약수한의원,"대구광역시 달서구 한들로 21, 1층 (장기동)",응급의료기관이외,대구,053-567-0412,053-567-0412,053-568-0412,2024-05-20
35.84541093,128.5442586,364,한의원,약초사랑성산한의원,"대구광역시 달서구 당산로 89 (감삼동,(1층))",응급의료기관이외,대구,053-587-0117,053-593-8275,053-587-0117,2024-05-20
35.8481027,128.5288667,365,한의원,양생한의원,"대구광역시 달서구 한들로 15, 5층 (장기동)",응급의료기관이외,대구,053-566-7585,053-566-7585,050-4007-2076,2024-05-20
35.85021364,128.5716588,366,한의원,어깻바람한의원,대구광역시 달서구 성당로 191 (성당동),응급의료기관이외,대구,053-626-7896,053-626-7896,053-626-1034,2024-05-20
35.8157093,128.5287619,367,한의원,여대원한의원,"대구광역시 달서구 월배로 133, 1,2층 (진천동)",응급의료기관이외,대구,053-641-1075,053-634-3366,053-638-0785,2024-05-20
35.81730156,128.533531,368,한의원,영천한의원,"대구광역시 달서구 월배로 180, 3층 (상인동)",응급의료기관이외,대구,053-631-0124,053-631-0124,053-632-3623,2024-05-20
35.81135922,128.5361248,369,한의원,예맥중앙한의원,"대구광역시 달서구 상원로 15, 2층 (상인동)",응급의료기관이외,대구,053-637-3772,053-637-3772,053-637-3633,2024-05-20
35.85848585,128.5309399,370,한의원,예솔한의원,"대구광역시 달서구 용산로 236, 2층 (용산동)",응급의료기관이외,대구,053-561-1075,053-561-1075,053-561-1076,2024-05-20
35.83025894,128.5503198,371,한의원,오덕한의원,대구광역시 달서구 송현동길 8,응급의료기관이외,대구,053-654-6039,053-654-6039,053-629-4250,2024-05-20
35.8177804,128.539322,372,한의원,온데이한의원,"대구광역시 달서구 월곡로 260, 2층 (상인동)",응급의료기관이외,대구,053-643-3375,053-643-3375,053-721-8857,2024-05-20
35.8169662,128.513082,373,한의원,온아한의원 월배월성점,"대구광역시 달서구 조암로 184, 201호 (유천동)",응급의료기관이외,대구,053-721-6576,053-721-6576,053-721-6586,2024-05-20
35.85473668,128.5308595,374,한의원,용산부부한의원,"대구광역시 달서구 용산로 194, 2층 (용산동)",응급의료기관이외,대구,053-521-5800,053-521-5800,053-526-3263,2024-05-20
35.85653616,128.5213165,375,한의원,용산한의원,"대구광역시 달서구 성지로 82, 2층 (용산동)",응급의료기관이외,대구,053-586-8275,053-586-8275,053-586-8274,2024-05-20
35.85025339,128.4736813,376,한의원,용진한의원,대구광역시 달서구 호산로 125 (파호동),응급의료기관이외,대구,053-591-6404,053-591-6404,053-284-6404,2024-05-20
35.8321697,128.5522922,377,한의원,우남한의원,대구광역시 달서구 월배로 425 (송현동),응급의료기관이외,대구,053-626-6688,053-626-6688,053-626-7582,2024-05-20
35.84811532,128.5280476,378,한의원,우리i참사랑한의원,"대구광역시 달서구 한들로 23, 2층 (장기동)",응급의료기관이외,대구,053-568-8275,053-568-8275,053-586-8274,2024-05-20
35.85848879,128.5302756,379,한의원,우리들한의원,"대구광역시 달서구 용산로 235, 2층 (용산동)",응급의료기관이외,대구,053-521-4883,053-521-4883,053-521-4883,2024-05-20
35.85586472,128.5076607,380,한의원,우성한의원,"대구광역시 달서구 성서로 430, 1층 (이곡동)",응급의료기관이외,대구,053-581-0124,053-581-0124,053-581-0241,2024-05-20
35.81114574,128.5253013,381,한의원,우종걸한의원,대구광역시 달서구 진천로 25-4 (진천동),응급의료기관이외,대구,053-755-7583,053-755-7583,,2024-05-20
35.81857264,128.5375235,382,한의원,우한의원,"대구광역시 달서구 월배로 220, 2층 (상인동)",응급의료기관이외,대구,053-636-2500,053-636-2500,053-636-2501,2024-05-20
35.81496073,128.5268204,383,한의원,월배조은한의원,"대구광역시 달서구 월배로 113, 2층 (진천동)",응급의료기관이외,대구,053-642-7582,053-642-7582,050-4330-8562,2024-05-20
35.81196993,128.5366158,384,한의원,월배홍한의원,"대구광역시 달서구 상원로 22, 2층 (상인동)",응급의료기관이외,대구,053-656-7500,053-656-7500,053-562-3335,2024-05-20
35.82438159,128.5243262,385,한의원,월성탑한의원,"대구광역시 달서구 조암로 48, 304호 (월성동)",응급의료기관이외,대구,053-431-7100,053-431-7100,053-431-7101,2024-05-20
35.8224185,128.5481252,386,한의원,월촌한결한의원,"대구광역시 달서구 송현로 38, 3층 (송현동)",응급의료기관이외,대구,053-719-4234,053-719-4234,0504-328-1580,2024-05-20
35.82364538,128.5458914,387,한의원,월촌한의원,"대구광역시 달서구 월배로 316, 3층 (송현동)",응급의료기관이외,대구,053-627-7975,053-627-7975,070-3440-7975,2024-05-20
35.82002923,128.5403222,388,한의원,윤성한의원,"대구광역시 달서구 월배로 247 (상인동,1층)",응급의료기관이외,대구,053-638-8850,053-572-6688,053-638-8851,2024-05-20
35.81550627,128.5236812,389,한의원,이경미한의원,"대구광역시 달서구 진천로 78, 301호 (진천동)",응급의료기관이외,대구,053-644-5075,053-644-5075,053-644-5076,2024-05-20
35.8432009,128.5426605,390,한의원,이소연한의원,"대구광역시 달서구 장기로 167 (본리동,203호)",응급의료기관이외,대구,053-567-1075,053-567-1075,053-567-1074,2024-05-20
35.83793223,128.5574794,391,한의원,이승우한의원,"대구광역시 달서구 성당로 3, 2층 (성당동)",응급의료기관이외,대구,053-626-1275,053-626-1275,053-629-1275,2024-05-20
35.8432852,128.5358081,392,한의원,이웃집한의원 대구달서점,"대구광역시 달서구 장기로 225, 3층 (장기동)",응급의료기관이외,대구,053-525-1217,053-525-1217,053-526-1217,2024-05-20
35.80870683,128.5505912,393,한의원,이철상한의원,대구광역시 달서구 월곡로26길 37 (상인동),응급의료기관이외,대구,053-636-1975,053-636-1975,053-644-1975,2024-05-20
35.81855456,128.5355203,394,한의원,일상한의원,"대구광역시 달서구 월배로 201, 3층 (상인동)",응급의료기관이외,대구,053-261-2112,053-261-2112,053-261-2114,2024-05-20
35.85505828,128.5044005,395,한의원,일침당한의원,"대구광역시 달서구 계대동문로 110, 2층층 (이곡동)",응급의료기관이외,대구,053-568-1717,053-568-1717,053-583-7502,2024-05-20
35.8433507,128.5333849,396,한의원,자애한의원,대구광역시 달서구 장기로 245-1 (장기동),응급의료기관이외,대구,053-527-1075,053-527-1075,053-527-1275,2024-05-20
35.80731242,128.5340615,397,한의원,자연나무한의원,대구광역시 달서구 한실로 67 (도원동),응급의료기관이외,대구,053-631-5775,053-631-5775,053-631-5779,2024-05-20
35.80693632,128.5375445,398,한의원,자인당한의원,"대구광역시 달서구 한실로 99, 2층 (도원동)",응급의료기관이외,대구,053-642-1122,053-642-1122,053-289-1422,2024-05-20
35.81392961,128.5214576,399,한의원,잘보는한의원,"대구광역시 달서구 월배로 63, 3층 (진천동)",응급의료기관이외,대구,053-638-6675,053-638-6675,053-638-6674,2024-05-20
35.83073852,128.5518727,400,한의원,장수한의원,"대구광역시 달서구 월배로 410, 5층 (송현동)",응급의료기관이외,대구,053-657-1075,053-657-1075,053-629-7712,2024-05-20
35.84484361,128.544144,401,한의원,장안한의원,대구광역시 달서구 당산로 81 (감삼동),응급의료기관이외,대구,053-555-0674,053-555-0674,053-555-0673,2024-05-20
35.85517188,128.5031058,402,한의원,전병욱한의원,대구광역시 달서구 계대동문로 98 (이곡동),응급의료기관이외,대구,053-592-0058,053-592-0058,053-582-0068,2024-05-20
35.83919749,128.5489316,403,한의원,정림한의원,"대구광역시 달서구 대명천로 99, 1층 (성당동)",응급의료기관이외,대구,053-651-1275,053-651-1275,053-653-1275,2024-05-20
35.84934214,128.5339233,404,한의원,정우영한의원,"대구광역시 달서구 달구벌대로 1530, 301동 310호 (감삼동, 삼정브리티시상가)",응급의료기관이외,대구,053-522-3335,053-522-3335,053-523-3335,2024-05-20
35.85513886,128.5213738,405,한의원,정인배한의원,대구광역시 달서구 성지로 66-1 (용산동),응급의료기관이외,대구,053-588-1075,053-588-1075,053-587-1566,2024-05-20
35.80723419,128.5354331,406,한의원,제남한의원,"대구광역시 달서구 도원로 30, 201호 (도원동, 대곡프라자)",응급의료기관이외,대구,053-631-7582,053-631-7582,053-632-8808,2024-05-20
35.83100789,128.5520959,407,한의원,제민한의원,대구광역시 달서구 월배로 414 (송현동),응급의료기관이외,대구,053-621-8121,053-621-8121,053-621-8350,2024-05-20
35.86096904,128.5692228,408,한의원,제영한의원,대구광역시 달서구 달구벌대로 1870 (두류동),응급의료기관이외,대구,053-623-2873,053-623-2873,053-651-8838,2024-05-20
35.81821486,128.5409185,409,한의원,제원당한의원,"대구광역시 달서구 상인서로 94, 203호 (상인동)",응급의료기관이외,대구,053-637-2805,053-637-2805,053-637-6621,2024-05-20
35.83158937,128.533151,410,한의원,제중한의원,"대구광역시 달서구 월성로 20, 2층 (월성동)",응급의료기관이외,대구,053-632-2245,053-632-2245,053-632-3222,2024-05-20
35.83722401,128.5566553,411,한의원,조형래한의원,"대구광역시 달서구 구마로 264, 2층 (송현동)",응급의료기관이외,대구,053-655-0300,053-655-0300,053-655-0350,2024-05-20
35.85784285,128.5376895,412,한의원,죽전한의원,"대구광역시 달서구 와룡로 282, 3,4층 (죽전동)",응급의료기관이외,대구,053-585-5121,053-585-5121,053-585-5129,2024-05-20
35.81363969,128.5238681,413,한의원,진산한의원,"대구광역시 달서구 월배로 80, 401동 206호 (진천동,진천역대성스카이렉스)",응급의료기관이외,대구,053-636-0505,053-636-0505,053-637-0050,2024-05-20
35.81334272,128.527872,414,한의원,진천이석한의원,"대구광역시 달서구 월배로28안길 54, 2층 (진천동)",응급의료기관이외,대구,053-639-7510,053-639-7510,053-639-7510,2024-05-20
35.81404722,128.5254864,415,한의원,진천최한의원,"대구광역시 달서구 월배로 100, 1층 (진천동)",응급의료기관이외,대구,053-639-0254,053-639-0254,053-639-0256,2024-05-20
35.81646383,128.5211201,416,한의원,진천한의원,"대구광역시 달서구 진천로 77 (진천동, 진천역 계룡리슈빌상가)",응급의료기관이외,대구,053-642-8875,053-642-8875,053-642-8876,2024-05-20
35.83161796,128.5307715,417,한의원,진한의원,"대구광역시 달서구 월성로 42, 212호 (월성동, 센트로벨리)",응급의료기관이외,대구,053-638-1075,053-638-1075,053-638-1055,2024-05-20
35.8555926,128.5449927,418,한의원,차오름한의원,"대구광역시 달서구 죽전4길 91, 2층 (감삼동)",응급의료기관이외,대구,053-561-8870,053-561-8870,053-562-8870,2024-05-20
35.8153036,128.5205482,419,한의원,참바른한의원,"대구광역시 달서구 진천로23길 70, 2층 202호 (대천동)",응급의료기관이외,대구,053-634-8899,053-634-8899,053-722-0567,2024-05-20
35.84660805,128.5264656,420,한의원,청담한의원,대구광역시 달서구 한들로 70 (장기동),응급의료기관이외,대구,053-525-0725,053-525-0725,053-571-1075,2024-05-20
35.81266296,128.5448312,421,한의원,청도한의원,대구광역시 달서구 월곡로 184 (상인동),응급의료기관이외,대구,053-632-4800,053-632-4800,053-632-4811,2024-05-20
35.84373868,128.5413357,422,한의원,최한의원,"대구광역시 달서구 장기로 174, 2층 (감삼동)",응급의료기관이외,대구,053-523-8275,053-523-8275,053-558-1075,2024-05-20
35.83520789,128.5342378,423,한의원,춘수한의원,"대구광역시 달서구 와룡로5길 46, 1층 (본동)",응급의료기관이외,대구,053-557-4222,053-557-4222,053-557-4222,2024-05-20
35.8501251,128.5301312,424,한의원,코끼리한의원,"대구광역시 달서구 용산로 141, 9층 (용산동, 그랜드타워)",응급의료기관이외,대구,053-523-1075,053-523-1075,053-524-1075,2024-05-20
35.8166038,128.5225442,425,한의원,태림한의원,"대구광역시 달서구 진천로 93, 애플플라자 3층 313,314호 (대천동)",응급의료기관이외,대구,053-633-5379,053-633-5379,,2024-05-20
35.85508431,128.5024963,426,한의원,태백한의원,"대구광역시 달서구 계대동문로 92, 2층 (이곡동)",응급의료기관이외,대구,053-593-8575,053-584-1075,053-584-1075,2024-05-20
35.85429105,128.545792,427,한의원,태인한의원,대구광역시 달서구 달구벌대로329길 14 (감삼동),응급의료기관이외,대구,053-522-7585,053-522-7585,053-522-7585,2024-05-20
35.82464895,128.5291202,428,한의원,태한한의원,대구광역시 달서구 조암남로 10 (월성동),응급의료기관이외,대구,053-635-3373,053-635-3373,053-635-3393,2024-05-20
35.82692745,128.5315813,429,한의원,태화한의원,"대구광역시 달서구 학산로 16 (월성동, 2층)",응급의료기관이외,대구,053-642-7755,053-642-7755,053-642-0078,2024-05-20
35.80965517,128.5135954,430,한의원,편한세상한의원,"대구광역시 달서구 비슬로 2728, 4층 (대곡동)",응급의료기관이외,대구,053-633-5599,053-633-5599,053-633-5913,2024-05-20
35.85515612,128.5047111,431,한의원,푸른맘한의원,"대구광역시 달서구 달구벌대로251길 33, 5층 (이곡동)",응급의료기관이외,대구,053-588-3366,053-588-3366,053-588-7501,2024-05-20
35.84934214,128.5339233,432,한의원,한마음정안한의원,"대구광역시 달서구 달구벌대로 1530, 306호 (감삼동, 삼정브리티시몰)",응급의료기관이외,대구,053-525-8207,053-525-8207,053-525-8208,2024-05-20
35.81910034,128.5404376,433,한의원,해인한의원,대구광역시 달서구 월배로 250 (상인동),응급의료기관이외,대구,053-635-7500,053-635-7500,053-635-7573,2024-05-20
35.83192291,128.5331421,434,한의원,해조한의원,대구광역시 달서구 월성로 36,응급의료기관이외,대구,053-637-6573,053-637-6573,053-639-6573,2024-05-20
35.81296242,128.5095224,435,한의원,혜민당한의원,"대구광역시 달서구 달서대로 65-25, 3층 (유천동)",응급의료기관이외,대구,053-634-1275,053-634-1275,053-634-1275,2024-05-20
35.82531787,128.5266344,436,한의원,호랑이한의원,대구광역시 달서구 조암로 28 (월성동),응급의료기관이외,대구,053-629-8787,053-629-8787,053-654-0342,2024-05-20
35.84587054,128.5442728,437,한의원,황성준한의원,대구광역시 달서구 당산로 93 (감삼동),응급의료기관이외,대구,053-522-7582,053-522-7582,053-522-7582,2024-05-20
35.8548693,128.5086489,438,의원,365상쾌한속연합내과의원,"대구광역시 달서구 이곡공원로 12, 3층 (이곡동)",응급의료기관이외,대구,053-588-0365,053-588-0365,053-588-0370,2024-05-20
35.8326971,128.5482863,439,의원,365열린우리의원,"대구광역시 달서구 월배로 491, 1호 (송현동)",응급의료기관이외,대구,053-625-3651,053-625-3651,053-625-3652,2024-05-20
35.82488853,128.5460438,440,의원,365열린종합내과의원,"대구광역시 달서구 월배로 327, 4층 (송현동)",응급의료기관이외,대구,053-652-3655,053-652-3655,053-652-3657,2024-05-20
35.83547125,128.5556136,441,의원,가톨릭서부내과의원,"대구광역시 달서구 월배로 473, 3층 (송현동)",응급의료기관이외,대구,053-477-8275,053-477-8275,053-477-8276,2024-05-20
35.85512544,128.5055745,442,의원,가톨릭안과의원,"대구광역시 달서구 계대동문로 120, 3층 (이곡동)",응급의료기관이외,대구,053-591-6006,053-591-6006,053-591-6007,2024-05-20
35.81670315,128.5322987,443,의원,가톨릭연합내과의원,"대구광역시 달서구 월배로 168, 아보스타워 5,6층 (상인동)",응급의료기관이외,대구,053-477-0808,053-477-0808,053-474-0808,2024-05-20
35.82875788,128.5494129,444,의원,가톨릭연합정형외과의원,대구광역시 달서구 월배로 379 (송현동),응급의료기관이외,대구,053-629-9119,053-629-9119,053-629-7070,2024-05-20
35.85667206,128.5552747,445,의원,가톨릭이비인후과의원,대구광역시 달서구 달구벌대로 1736 (두류동),응급의료기관이외,대구,053-623-5075,053-623-5075,053-624-5075,2024-05-20
35.8154103,128.5296338,446,의원,강석진웰키움소아청소년과의원,"대구광역시 달서구 월배로 138, 2층 (진천동)",응급의료기관이외,대구,053-636-0852,053-636-0852,053-636-0853,2024-05-20
35.82438159,128.5243262,447,의원,건강한속내과의원,"대구광역시 달서구 조암로 48, 206호 (월성동, 원더풀스파랜드)",응급의료기관이외,대구,053-636-2900,053-636-2900,053-636-2902,2024-05-20
35.8262217,128.5292076,448,의원,경대리즈유외과의원,"대구광역시 달서구 조암로 4, 3층 301,302호 (월성동)",응급의료기관이외,대구,053-639-6060,053-639-6060,053-639-6061,2024-05-20
35.8195135,128.5387583,449,의원,경대연합안과의원,"대구광역시 달서구 월배로 233, 6층 (상인동)",응급의료기관이외,대구,053-636-8875,053-636-8875,053-636-8884,2024-05-20
35.84373028,128.545177,450,의원,경대연합진내과의원,대구광역시 달서구 장기로 140 (성당동),응급의료기관이외,대구,053-656-0526,053-656-0526,053-656-0527,2024-05-20
35.81449849,128.5274038,451,의원,경대연합팔팔한속내과의원,"대구광역시 달서구 월배로 120, 서호빌딩 2층 202호 (진천동)",응급의료기관이외,대구,053-716-8880,053-716-8880,053-716-8810,2024-05-20
35.81910639,128.5370845,452,의원,경대제이정신건강의학과의원,"대구광역시 달서구 월배로 219, 701호 (상인동, CENTRO TOWER)",응급의료기관이외,대구,053-633-6680,053-633-6680,053-633-6685,2024-05-20
35.825673,128.5297384,453,의원,경대최강마취통증의학과의원,"대구광역시 달서구 조암로 1, 미래타워 403,404호 (월성동)",응급의료기관이외,대구,053-654-0119,053-654-0119,053-642-3119,2024-05-20
35.843344,128.536751,454,의원,경대케이속내과의원,"대구광역시 달서구 장기로 217, 5층 (본리동)",응급의료기관이외,대구,053-558-5300,053-558-5300,053-558-5305,2024-05-20
35.82584429,128.5278554,455,의원,경대탑내과의원,"대구광역시 달서구 조암로 16, 도원빌딩 3층 (월성동)",응급의료기관이외,대구,053-636-5100,053-636-5100,053-636-5105,2024-05-20
35.85943711,128.5634321,456,의원,경일신경과내과의원,대구광역시 달서구 달구벌대로 1814 (두류동),응급의료기관이외,대구,053-652-2525,053-652-2525,053-625-3234,2024-05-20
35.82993396,128.5504283,457,의원,고성만내과의원,대구광역시 달서구 월배로 395 (송현동),응급의료기관이외,대구,053-626-8575,053-626-8575,053-623-5012,2024-05-20
35.81296242,128.5095224,458,의원,고운아이소아청소년과의원,"대구광역시 달서구 달서대로 65-25, 제일빌딩 2층 (유천동)",응급의료기관이외,대구,053-637-7117,053-637-7117,053-637-7227,2024-05-20
35.85587979,128.5531323,459,의원,곽신일이비인후과의원,대구광역시 달서구 달구벌대로 1714 (두류동),응급의료기관이외,대구,053-552-5578,053-552-5578,053-552-5578,2024-05-20
35.85667206,128.5552747,460,의원,광장신경외과의원,"대구광역시 달서구 달구벌대로 1736, 2층 (두류동)",응급의료기관이외,대구,053-624-7755,053-624-7755,053-624-7765,2024-05-20
35.85572805,128.5528102,461,의원,광장피부과의원,"대구광역시 달서구 달구벌대로 1710, 2층 (두류동)",응급의료기관이외,대구,053-622-5550,053-622-5550,053-653-5559,2024-05-20
35.81391552,128.5246888,462,의원,구순정산부인과의원,"대구광역시 달서구 월배로 92, 4층 (진천동)",응급의료기관이외,대구,053-642-8400,053-642-8400,053-642-8410,2024-05-20
35.82567385,128.5297136,463,의원,구자섭정신건강의학과의원,대구광역시 달서구 조암로 1 (월성동),응급의료기관이외,대구,053-637-2727,053-637-2727,053-637-2726,2024-05-20
35.81502563,128.5284586,464,의원,굿모닝이비인후과의원,"대구광역시 달서구 월배로 130, 2층 (진천동)",응급의료기관이외,대구,053-635-7585,053-635-7585,053-635-7533,2024-05-20
35.83100789,128.5520959,465,의원,권석룡내과의원,대구광역시 달서구 월배로 414 (송현동),응급의료기관이외,대구,053-654-1538,053-654-1538,053-654-1540,2024-05-20
35.850369,128.536089,466,의원,권선미유외과의원,"대구광역시 달서구 달구벌대로 1545, 골든뷰 메디타워 2층(죽전동)",응급의료기관이외,대구,053-552-9900,053-552-9900,053-552-9990,2024-05-20
35.81839219,128.5395696,467,의원,권이비인후과의원,"대구광역시 달서구 상인서로 103-6, 리젠트프라자 7층 (상인동)",응급의료기관이외,대구,053-634-3433,053-634-3433,053-634-3447,2024-05-20
35.85015341,128.5339066,468,의원,그랜드미래흉부외과의원,"대구광역시 달서구 달구벌대로 1525, J타워 501호 (죽전동)",응급의료기관이외,대구,053-555-0655,053-555-0655,053-555-0656,2024-05-20
35.82625298,128.5291972,469,의원,그루메디신경외과의원,"대구광역시 달서구 조암로 4, 4층 401,402호 (월성동, 그루메디컬빌딩)",응급의료기관이외,대구,053-642-2119,053-642-2119,053-644-2119,2024-05-20
35.82625298,128.5291972,470,의원,그린셀의원,"대구광역시 달서구 조암로 4 (월성동, 그루메디칼빌딩)",응급의료기관이외,대구,053-639-8875,053-639-8875,053-639-8876,2024-05-20
35.857011,128.555965,471,의원,김경식정신건강의학과의원,"대구광역시 달서구 달구벌대로 1744, 5층 (두류동)",응급의료기관이외,대구,053-623-8575,053-623-8575,053-623-8576,2024-05-20
35.84334869,128.5378682,472,의원,김교선내과의원,대구광역시 달서구 장기로 205 (본리동),응급의료기관이외,대구,053-526-5600,053-526-5600,053-526-5606,2024-05-20
35.81611871,128.5196461,473,의원,김교일소아청소년과의원,대구광역시 달서구 월배로11길 32 (대천동),응급의료기관이외,대구,053-641-9124,053-641-9124,053-641-9125,2024-05-20
35.85549061,128.5213207,474,의원,김기윤내과의원,대구광역시 달서구 성지로 70 (용산동),응급의료기관이외,대구,053-591-7715,053-591-7715,053-591-7716,2024-05-20
35.84934214,128.5339233,475,의원,김대혁정신건강의학과의원,"대구광역시 달서구 달구벌대로 1530, 301동 307호 (감삼동)",응급의료기관이외,대구,053-554-5575,053-554-5575,053-554-5574,2024-05-20
35.84955946,128.5357182,476,의원,김도훈정신건강의학과의원,"대구광역시 달서구 달구벌대로 1542, 3층 302호 (감삼동)",응급의료기관이외,대구,053-522-2525,053-522-2525,053-522-2526,2024-05-20
35.80717774,128.5359638,477,의원,김동환내과의원,대구광역시 달서구 도원로 29 (도원동),응급의료기관이외,대구,053-641-5513,053-641-5513,053-641-5513,2024-05-20
35.8115427,128.5374207,478,의원,김무원내과의원,대구광역시 달서구 상화북로 101 (상인동),응급의료기관이외,대구,053-633-1253,053-633-1253,053-638-8838,2024-05-20
35.85779091,128.5291084,479,의원,김미정소아청소년과의원,"대구광역시 달서구 용산서로 14, 202호 (용산동, 대광 골든프라자 2층)",응급의료기관이외,대구,053-521-3311,053-521-3311,053-521-3316,2024-05-20
35.85693505,128.4996183,480,의원,김부선이비인후과의원,대구광역시 달서구 성서서로 355-1 (신당동),응급의료기관이외,대구,053-585-8437,053-585-8437,050-4365-8437,2024-05-20
35.8549399,128.5046876,481,의원,김석재내과의원,"대구광역시 달서구 이곡서로 73, 2층 (이곡동)",응급의료기관이외,대구,053-591-7504,053-591-7504,053-592-7504,2024-05-20
35.83673875,128.556342,482,의원,김성수신경과의원,"대구광역시 달서구 월배로 489, 2층(송현동)",응급의료기관이외,대구,053-622-7575,053-622-7575,053-622-8575,2024-05-20
35.82492049,128.5469405,483,의원,김신경과의원,"대구광역시 달서구 월배로 332, 2층 (송현동)",응급의료기관이외,대구,053-653-9928,053-653-9928,053-653-9919,2024-05-20
35.84141675,128.5445412,484,의원,김신향소아과의원,"대구광역시 달서구 당산로 43, 4,5층 (본리동)",응급의료기관이외,대구,053-526-5386,053-526-5386,053-526-5386,2024-05-20
35.81467632,128.5480431,485,의원,김앤박연합정형외과의원,대구광역시 달서구 상화북로 211 (상인동),응급의료기관이외,대구,053-642-8275,053-642-8275,053-642-3235,2024-05-20
35.81985558,128.5307704,486,의원,김앤신연합소아청소년과의원,"대구광역시 달서구 상원로 128, 3층 (상인동)",응급의료기관이외,대구,053-644-7588,053-644-7588,053-644-7545,2024-05-20
35.8578036,128.5303153,487,의원,김이근내과의원,"대구광역시 달서구 용산로 225, 2층 (용산동)",응급의료기관이외,대구,053-521-7575,053-521-7575,053-521-7575,2024-05-20
35.86170457,128.5718633,488,의원,김종식산부인과의원,대구광역시 달서구 달구벌대로 1896 (두류동),응급의료기관이외,대구,053-624-2266,053-624-2266,053-624-2266,2024-05-20
35.8142425,128.5261738,489,의원,김진성정신건강의학과의원,"대구광역시 달서구 월배로 106, 2층 (진천동)",응급의료기관이외,대구,053-641-9666,053-641-9666,053-641-9667,2024-05-20
35.82988503,128.5512691,490,의원,김창원이비인후과의원,대구광역시 달서구 월배로 400 (송현동),응급의료기관이외,대구,053-628-1083,053-628-1083,053-621-1532,2024-05-20
35.8583149,128.5308723,491,의원,김태형피부과의원,"대구광역시 달서구 용산로 232, 2층 (용산동, 삼일빌딩)",응급의료기관이외,대구,053-523-0008,053-523-0008,053-523-0008,2024-05-20
35.81821486,128.5409185,492,의원,김필영 내과의원,"대구광역시 달서구 상인서로 94, 205호 (상인동, 태왕상가)",응급의료기관이외,대구,053-636-7653,053-636-7653,053-636-7653,2024-05-20
35.83680122,128.5564752,493,의원,김희택이비인후과의원,대구광역시 달서구 월배로 491 (송현동),응급의료기관이외,대구,053-655-3181,053-655-3181,053-656-3181,2024-05-20
35.82488853,128.5460438,494,의원,나라신경외과의원,"대구광역시 달서구 월배로 327, 1층 (송현동)",응급의료기관이외,대구,053-652-8500,053-652-8500,053-652-8501,2024-05-20
35.83157509,128.5323097,495,의원,나문주종합의원,대구광역시 달서구 월성로 30 (월성동),응급의료기관이외,대구,053-635-7728,053-635-7728,053-635-9070,2024-05-20
35.8501251,128.5301312,496,의원,나사렛연합내과의원,"대구광역시 달서구 용산로 141, 6층 (용산동)",응급의료기관이외,대구,053-527-8003,053-527-8003,053-527-5008,2024-05-20
35.8537866,128.5477038,497,의원,남내과의원,"대구광역시 달서구 달구벌대로 1660, 2층 (감삼동, 춘산빌딩)",응급의료기관이외,대구,053-555-7582,053-555-7582,053-565-1825,2024-05-20
35.85401876,128.5540605,498,의원,남윤덕가정의학과의원,"대구광역시 달서구 야외음악당로39길 45, 2층 (두류동)",응급의료기관이외,대구,053-653-0653,053-653-0653,053-653-0654,2024-05-20
35.81670315,128.5322987,499,의원,내눈에꽃의원,"대구광역시 달서구 월배로 168, 아보스타워 4층(상인동)",응급의료기관이외,대구,053-632-0075,053-632-0075,053-644-0075,2024-05-20
35.82418426,128.5261621,500,의원,내안에유산부인과의원,"대구광역시 달서구 조암로 39, 5층 501, 502호 (월성동)",응급의료기관이외,대구,053-636-0099,053-636-0100,053-636-0092,2024-05-20
35.82555017,128.5271008,501,의원,네오미피부과의원,"대구광역시 달서구 조암로 24, A동 3층 303호 (월성동)",응급의료기관이외,대구,053-656-0075,053-656-0075,053-656-0073,2024-05-20
35.8161761,128.5314566,502,의원,뉴스템연합의원,"대구광역시 달서구 월배로 156, 6층 (상인동)",응급의료기관이외,대구,053-642-0119,053-642-0119,053-641-7582,2024-05-20
35.81414241,128.5222669,503,의원,늘편한신내과의원,"대구광역시 달서구 월배로 71, 303호(진천동, 트윈팰리스상가)",응급의료기관이외,대구,053-641-8875,053-641-8875,053-641-8876,2024-05-20
35.8450523,128.5368192,504,의원,늘행복정신건강의학과의원,"대구광역시 달서구 와룡로 186, 401동 407호 (감삼동, 빌리브 스카이 주상복합)",응급의료기관이외,대구,053-553-7575,053-553-7575,053-553-7577,2024-05-20
35.86108125,128.5721578,505,의원,다나소아청소년과의원,대구광역시 달서구 명덕로 10 (두류동),응급의료기관이외,대구,053-628-3600,053-628-3600,053-628-3601,2024-05-20
35.84928268,128.5351296,506,의원,다나연합내과의원,"대구광역시 달서구 용산로24길 87, 2층 203호 205호 (감삼동, 웰컴빌딩)",응급의료기관이외,대구,053-551-7509,053-551-7509,053-556-7509,2024-05-20
35.84373733,128.5456088,507,의원,다나을의원,대구광역시 달서구 장기로 136 (성당동),응급의료기관이외,대구,053-964-7582,053-964-7582,050-4098-7098,2024-05-20
35.82625298,128.5291972,508,의원,다니엘소아청소년과의원,"대구광역시 달서구 조암로 4, 4층 (월성동, 그루메디컬빌딩)",응급의료기관이외,대구,053-719-2882,053-719-2882,053-719-2883,2024-05-20
35.82625298,128.5291972,509,의원,다니엘이비인후과의원,"대구광역시 달서구 조암로 4, 4층 (월성동, 그루메디컬빌딩)",응급의료기관이외,대구,053-719-2882,053-719-2882,053-719-2883,2024-05-20
35.82567385,128.5297136,510,의원,다온피부과의원,대구광역시 달서구 조암로 1 (월성동),응급의료기관이외,대구,053-641-7575,053-641-7575,053-641-7571,2024-05-20
35.85697196,128.5308634,511,의원,다정한산부인과의원,"대구광역시 달서구 용산로 218, 2층 (용산동)",응급의료기관이외,대구,053-522-0075,053-522-0075,053-522-0076,2024-05-20
35.850369,128.536089,512,의원,닥터디자이너의원,"대구광역시 달서구 달구벌대로 1545, 골든뷰 메디타워 5층 505호 (죽전동)",응급의료기관이외,대구,053-721-7097,053-721-7097,053-721-7096,2024-05-20
35.81891491,128.5212469,513,의원,닥터신이비인후과의원,"대구광역시 달서구 진천로 117, 월배이타운 2층 207호 (대천동)",응급의료기관이외,대구,053-633-2300,053-631-1600,053-633-2301,2024-05-20
35.84384836,128.5309196,514,의원,닥터한정형외과의원,대구광역시 달서구 장기로 268 (장기동),응급의료기관이외,대구,053-261-0119,053-261-0119,053-261-2119,2024-05-20
35.84988175,128.5301296,515,의원,달서여성메디파크의원,"대구광역시 달서구 용산로 139, 8층(용산동)",응급의료기관이외,대구,053-667-7575,053-667-7575,053-667-7599,2024-05-20
35.83222907,128.5531006,516,의원,달서연합의원,대구광역시 달서구 월배로 432 (송현동),응급의료기관이외,대구,053-623-0475,053-623-0475,053-629-0475,2024-05-20
35.8537866,128.5477038,517,의원,달서연합정형외과의원,"대구광역시 달서구 달구벌대로 1660, 1,5층 (감삼동)",응급의료기관이외,대구,053-566-6767,053-566-6767,053-566-6768,2024-05-20
35.85118081,128.5729722,518,의원,달성외과의원,대구광역시 달서구 파도고개로 3 (성당동),응급의료기관이외,대구,053-625-5806,053-625-5806,053-625-5806,2024-05-20
35.8573514,128.558435,519,의원,대경신경과의원,"대구광역시 달서구 달구벌대로 1762, 302호 (두류동)",응급의료기관이외,대구,053-624-0119,053-624-0119,053-624-6690,2024-05-20
35.80717774,128.5359638,520,의원,대곡경대플러스마취통증의학과의원,대구광역시 달서구 도원로 29(도원동),응급의료기관이외,대구,053-638-8575,,053-638-8576,2024-05-20
35.80910204,128.512264,521,의원,대곡다나연합내과의원,"대구광역시 달서구 비슬로 2716, 3층 (대곡동)",응급의료기관이외,대구,053-638-7509,053-638-7509,053-625-1022,2024-05-20
35.80728434,128.5342937,522,의원,대곡미래연합의원,"대구광역시 달서구 한실로 69, 대한빌딩 3층 (도원동)",응급의료기관이외,대구,053-633-9807,053-633-9807,053-633-9808,2024-05-20
35.80717774,128.5359638,523,의원,대곡소아과의원,"대구광역시 달서구 도원로 29, 3층 (도원동, 중앙빌딩)",응급의료기관이외,대구,053-641-6766,053-641-6766,053-641-6766,2024-05-20
35.80910204,128.512264,524,의원,대곡시원제통의원,"대구광역시 달서구 비슬로 2716, 4층 (대곡동)",응급의료기관이외,대구,053-641-9955,053-641-9955,053-641-9953,2024-05-20
35.8079343,128.5360906,525,의원,대곡신세계미산부인과의원,"대구광역시 달서구 도원로 19, 2층(도원동)",응급의료기관이외,대구,053-638-0998,053-638-0998,053-638-0998,2024-05-20
35.85366298,128.5569255,526,의원,대곡연세의원,"대구광역시 달서구 야외음악당로 201, 2층 (두류동)",응급의료기관이외,대구,053-644-8686,053-644-8686,053-644-8689,2024-05-20
35.80723419,128.5354331,527,의원,대곡제일내과의원,"대구광역시 달서구 도원로 30, 203호 (도원동, 대곡프라자)",응급의료기관이외,대구,053-638-9922,053-638-9922,053-638-8922,2024-05-20
35.80731242,128.5340615,528,의원,대곡최내과의원,"대구광역시 달서구 한실로 67, 3층 (도원동)",응급의료기관이외,대구,053-636-1027,053-636-1027,053-631-9467,2024-05-20
35.84380022,128.5066426,529,의원,대구가톨릭의원,"대구광역시 달서구 성서공단북로 308, 4층 (갈산동)",응급의료기관이외,대구,053-583-4280,053-582-1949,053-583-1941,2024-05-20
35.8370371,128.5561448,530,의원,대구나눔의료소비자생활협동조합나눔연합의원,"대구광역시 달서구 구마로 258, 2층 (송현동)",응급의료기관이외,대구,053-652-8275,053-623-5665,053-623-9917,2024-05-20
35.84955946,128.5357182,531,의원,대구명안과의원,"대구광역시 달서구 달구벌대로 1542, 6층 (감삼동)",응급의료기관이외,대구,053-285-8000,053-285-8000,053-285-8200,2024-05-20
35.84955946,128.5357182,532,의원,대구탑연합정형외과의원,대구광역시 달서구 달구벌대로 1542 (감삼동),응급의료기관이외,대구,053-262-7500,053-262-7500,053-262-7503,2024-05-20
35.81909078,128.5160135,533,의원,대천속내과의원,"대구광역시 달서구 조암로 149, 대천그루타워 301호(대천동)",응급의료기관이외,대구,053-632-3500,053-632-3500,053-632-3501,2024-05-20
35.8254499,128.5299109,534,의원,더데이의원,"대구광역시 달서구 월곡로 379, 303호 (월성동)",응급의료기관이외,대구,053-710-0096,053-710-0096,,2024-05-20
35.850369,128.536089,535,의원,더동안의원,"대구광역시 달서구 달구벌대로 1545, 골든뷰 메디타워 301,302호(죽전동)",응급의료기관이외,대구,053-716-2619,053-716-2619,053-716-2620,2024-05-20
35.84491889,128.5374471,536,의원,더본연합정형외과의원,"대구광역시 달서구 와룡로 138, 중조빌딩 2,4,5,6층(감삼동",응급의료기관이외,대구,053-553-7500,053-553-7500,053-553-7501,2024-05-20
35.819133,128.537155,537,의원,더블유안과의원,"대구광역시 달서구 월배로 219, CENTRO TOWER 3층 302호 (상인동)",응급의료기관이외,대구,053-633-0123,053-633-0123,053-631-0123,2024-05-20
35.85394679,128.5461771,538,의원,더원정형외과의원,"대구광역시 달서구 달구벌대로 1647, 1~5, 10층 (감삼동)",응급의료기관이외,대구,053-638-0001,053-638-0001,053-638-6262,2024-05-20
35.8175028,128.5327706,539,의원,더자람연합의원,"대구광역시 달서구 월배로 175, 우리빌딩 2층 (상인동)",응급의료기관이외,대구,053-263-3200,053-263-3200,053-263-3201,2024-05-20
35.850326,128.5360651,540,의원,더차오름의원,"대구광역시 달서구 달구벌대로 1545, 골든뷰 메디타워 1004,1005호 (죽전동)",응급의료기관이외,대구,053-716-1090,053-716-1090,053-710-1095,2024-05-20
35.8366755,128.5562924,541,의원,더편한내과의원,"대구광역시 달서구 월배로 487-1, 6,7층 (송현동)",응급의료기관이외,대구,053-651-7585,053-651-7585,053-652-7585,2024-05-20
35.82555017,128.5271008,542,의원,더편한마취통증의학과의원,"대구광역시 달서구 조암로 24, 4층 403호 (월성동)",응급의료기관이외,대구,053-638-9118,053-638-9118,053-634-9118,2024-05-20
35.85039019,128.5148108,543,의원,도외과의원,대구광역시 달서구 달구벌대로 1348 (이곡동),응급의료기관이외,대구,053-581-7001,053-581-7001,053-581-7002,2024-05-20
35.80717774,128.5359638,544,의원,도원정형외과의원,대구광역시 달서구 도원로 29 (도원동),응급의료기관이외,대구,053-636-7575,053-636-7575,053-637-7595,2024-05-20
35.85496251,128.509991,545,의원,동산연합이비인후과의원,"대구광역시 달서구 이곡공원로 24, 3층 (이곡동)",응급의료기관이외,대구,053-593-2005,053-593-2005,053-593-2006,2024-05-20
35.83161796,128.5307715,546,의원,동산종합의원,"대구광역시 달서구 월성로 42, 201호 (월성동)",응급의료기관이외,대구,053-635-7947,053-635-7947,053-635-7946,2024-05-20
35.8501079,128.5380357,547,의원,동서비뇨기과의원,대구광역시 달서구 달구벌대로 1562 (감삼동),응급의료기관이외,대구,053-564-0980,053-564-0980,053-564-0981,2024-05-20
35.81837698,128.5369357,548,의원,동서자애신경외과내과의원,대구광역시 달서구 월배로 214 (상인동),응급의료기관이외,대구,053-631-3771,053-631-3771,053-631-3776,2024-05-20
35.85025339,128.4736813,549,의원,동아내과의원,"대구광역시 달서구 호산로 125, 209호 (파호동)",응급의료기관이외,대구,053-588-3375,053-588-3375,053-588-3075,2024-05-20
35.85459052,128.5532119,550,의원,두류연합의원,"대구광역시 달서구 야외음악당로39길 65, 2층 (두류동)",응급의료기관이외,대구,053-626-7585,053-626-7585,053-626-2104,2024-05-20
35.81670315,128.5322987,551,의원,두웰신경과의원,"대구광역시 달서구 월배로 168, 아보스타워 4층 403호 (상인동)",응급의료기관이외,대구,053-642-5757,053-642-5757,053-642-5767,2024-05-20
35.8484374,128.536007,552,의원,따뜻한속내과의원,"대구광역시 달서구 와룡로 169(감삼동, 월드마크웨스트엔드)",응급의료기관이외,대구,053-521-7582,053-521-7582,053-552-3355,2024-05-20
35.8370407,128.5561545,553,의원,라인정신건강의학과의원,"대구광역시 달서구 구마로 258, 2~6층 (송현동)",응급의료기관이외,대구,053-719-0075,053-719-0075,0583-719-0076,2024-05-20
35.82555017,128.5271008,554,의원,라파이비인후과의원,"대구광역시 달서구 조암로 24, 302호(월성동, 한신메디타원)",응급의료기관이외,대구,053-633-7575,053-633-7575,053-641-8577,2024-05-20
35.8177804,128.539322,555,의원,로운안과의원,"대구광역시 달서구 월곡로 260, 3층(상인동)",응급의료기관이외,대구,053-634-8575,053-634-8575,070-4395-8328,2024-05-20
35.850369,128.536089,556,의원,로제피부과의원,"대구광역시 달서구 달구벌대로 1545, 골든뷰 메디타워 704호,705호 (죽전동)",응급의료기관이외,대구,053-521-1475,053-521-1475,053-521-1476,2024-05-20
35.82192024,128.5285929,557,의원,로하스속내과의원,"대구광역시 달서구 조암남로 38, 202호 (월성동)",응급의료기관이외,대구,053-422-7579,053-422-7579,053-422-7511,2024-05-20
35.850369,128.536089,558,의원,류주연산부인과의원,"대구광역시 달서구 달구벌대로 1545, 골든뷰 메디타워 701호 (죽전동)",응급의료기관이외,대구,053-562-8275,053-562-8275,053-562-8276,2024-05-20
35.8508653,128.5376667,559,의원,르봄여성의원,"대구광역시 달서구 달구벌대로 1565, 5층 (죽전동)",응급의료기관이외,대구,053-525-7575,053-525-7575,053-525-7574,2024-05-20
35.85499453,128.5066919,560,의원,리더스내과의원,"대구광역시 달서구 성서로 419, 3층 (이곡동)",응급의료기관이외,대구,053-587-7582,053-587-7582,053-591-7582,2024-05-20
35.81688208,128.5325986,561,의원,리즈피부과의원,"대구광역시 달서구 월배로 170, 3층 (상인동)",응급의료기관이외,대구,053-631-3060,053-631-3060,053-631-3076,2024-05-20
35.81688208,128.5325986,562,의원,마미유의원,"대구광역시 달서구 월배로 170, 4층 (상인동)",응급의료기관이외,대구,053-635-6075,053-635-6075,053-635-6076,2024-05-20
35.81891491,128.5212469,563,의원,마인드정형외과의원,"대구광역시 달서구 진천로 117, 2층 201, 202호 (대천동, 월배이타운)",응급의료기관이외,대구,053-632-0005,053-632-0005,053-632-2005,2024-05-20
35.843863,128.536406,564,의원,맑은결의원,"대구광역시 달서구 와룡로 123, 상가 301동 203호 (감삼동, 죽전역 동화아이위시)",응급의료기관이외,대구,053-716-2075,053-716-2075,053-716-0175,2024-05-20
35.85425935,128.5100197,565,의원,맑은샘정신건강의학과의원,"대구광역시 달서구 이곡동로 23, 5층 503호 (이곡동)",응급의료기관이외,대구,053-584-9298,053-584-9298,053-584-9297,2024-05-20
35.8132331,128.5237828,566,의원,맑은윤슬의원,"대구광역시 달서구 월배로 80, 401동 212,213호 (진천동, 진천역대성스카이렉스아파트)",응급의료기관이외,대구,053-638-2579,053-638-2579,053-638-2570,2024-05-20
35.81640671,128.5300392,567,의원,맘튼정신건강의학과의원,"대구광역시 달서구 월배로 147, 3층 302호 (진천동)",응급의료기관이외,대구,053-638-5575,053-638-5575,053-638-5570,2024-05-20
35.83737243,128.5538005,568,의원,맥의원,"대구광역시 달서구 구마로 237, 2층 (성당동)",응급의료기관이외,대구,053-652-9777,053-652-9777,053-651-9775,2024-05-20
35.8577869,128.5302491,569,의원,메디웰의원,"대구광역시 달서구 용산로 225, 2층 202호 (용산동)",응급의료기관이외,대구,070-7677-9011,070-7677-9011,070-7677-9101,2024-05-20
35.842302,128.545973,570,의원,메디필즈의원,"대구광역시 달서구 장기로 217, 3층 (본리동)",응급의료기관이외,대구,053-623-6686,053-623-6686,053-624-6686,2024-05-20
35.83791698,128.5568815,571,의원,명가마디내과의원,"대구광역시 달서구 구마로 265, 4층 (성당동)",응급의료기관이외,대구,053-627-1616,053-627-1616,053-627-1617,2024-05-20
35.85587979,128.5531323,572,의원,미래안과의원,대구광역시 달서구 달구벌대로 1714 (두류동),응급의료기관이외,대구,053-623-7588,053-623-7588,053-623-7570,2024-05-20
35.85424897,128.5103407,573,의원,미래연합비뇨기과의원,"대구광역시 달서구 이곡동로 25, 2층 (이곡동)",응급의료기관이외,대구,053-592-1119,053-592-1119,053-592-1118,2024-05-20
35.80885624,128.5514221,574,의원,미래종합의원,대구광역시 달서구 상인로 7 (상인동),응급의료기관이외,대구,053-637-8340,053-637-8340,053-637-8340,2024-05-20
35.82522959,128.5262133,575,의원,미쁨의원,"대구광역시 달서구 조암로 32, 신월성미소지움 3층 301~303호 (월성동)",응급의료기관이외,대구,053-631-0000,053-631-0000,053-641-2020,2024-05-20
35.81758446,128.5327472,576,의원,미소안과의원,대구광역시 달서구 월배로 175 (상인동),응급의료기관이외,대구,053-643-5575,053-643-5575,053-643-5576,2024-05-20
35.85572805,128.5528102,577,의원,미소지앤의원,대구광역시 달서구 달구벌대로 1710 (두류동),응급의료기관이외,대구,053-627-0066,053-627-0066,053-628-0067,2024-05-20
35.83278307,128.5541449,578,의원,미여성의원,"대구광역시 달서구 월배로 442, 2층 (송현동)",응급의료기관이외,대구,053-624-1004,053-624-1004,053-624-1008,2024-05-20
35.82394158,128.5341621,579,의원,미와건강종합의원,"대구광역시 달서구 학산남로 13, 301호 302호 (월성동)",응급의료기관이외,대구,053-637-7200,053-637-7200,053-637-7250,2024-05-20
35.81909078,128.5160135,580,의원,바른연합소아청소년과의원,"대구광역시 달서구 조암로 149, 502호(대천동)",응급의료기관이외,대구,053-637-2200,053-637-2200,053-637-2201,2024-05-20
35.81518397,128.5272977,581,의원,바른연합정형외과의원,"대구광역시 달서구 월배로 119, 1,3,4층 (진천동)",응급의료기관이외,대구,053-633-6119,053-633-6119,053-633-6117,2024-05-20
35.83791698,128.5568815,582,의원,바른척척의원,"대구광역시 달서구 구마로 265, 청광빌딩2층 (성당동)",응급의료기관이외,대구,053-621-8275,053-621-8275,053-621-8276,2024-05-20
35.85229651,128.4988252,583,의원,박가정의학과의원,대구광역시 달서구 신당로 56 (신당동),응급의료기관이외,대구,053-592-8575,053-592-8575,053-592-8576,2024-05-20
35.8577651,128.5308687,584,의원,박기수내과의원,"대구광역시 달서구 용산로 226, 2층 (용산동)",응급의료기관이외,대구,053-524-3322,053-524-3322,053-523-7582,2024-05-20
35.81321984,128.5209329,585,의원,박세영앤대구항외과의원,대구광역시 달서구 월배로 58 (진천동),응급의료기관이외,대구,053-651-7175,053-651-7175,053-636-9405,2024-05-20
35.8177804,128.539322,586,의원,박앤리피부과의원,"대구광역시 달서구 월곡로 260, 5층 (상인동)",응급의료기관이외,대구,053-644-7755,053-644-7755,053-644-7756,2024-05-20
35.80796401,128.5354933,587,의원,박의수피부과의원,"대구광역시 달서구 도원로 20, 402호 (도원동, 전원빌딩)",응급의료기관이외,대구,053-637-7477,053-637-7477,053-636-2123,2024-05-20
35.85450681,128.5498567,588,의원,박재호내과의원,대구광역시 달서구 달구벌대로 1680 (두류동),응급의료기관이외,대구,053-621-1727,053-621-1727,053-621-1728,2024-05-20
35.81266296,128.5448312,589,의원,박정국내과의원,대구광역시 달서구 월곡로 184 (상인동),응급의료기관이외,대구,053-632-5577,053-632-5577,053-642-6939,2024-05-20
35.85404428,128.5485138,590,의원,박종수신경외과의원,"대구광역시 달서구 달구벌대로 1666, 2층 205호 (두류동)",응급의료기관이외,대구,053-657-9201,053-657-9201,053-656-9202,2024-05-20
35.81910639,128.5370845,591,의원,박혜란유외과의원,"대구광역시 달서구 월배로 219, 603호 (상인동)",응급의료기관이외,대구,053-634-6075,053-634-6075,053-634-6085,2024-05-20
35.85675225,128.5554746,592,의원,밝은눈안과의원,"대구광역시 달서구 달구벌대로 1738, 2층 (두류동)",응급의료기관이외,대구,053-654-9660,053-654-9660,053-654-8760,2024-05-20
35.85629823,128.5542535,593,의원,방성혁이비인후과의원,"대구광역시 달서구 달구벌대로 1726, 4층 (두류동)",응급의료기관이외,대구,053-621-7701,053-621-7701,050-4190-7049,2024-05-20
35.83686255,128.547067,594,의원,배덕수내과의원,대구광역시 달서구 구마로 176 (본동),응급의료기관이외,대구,053-623-4634,053-623-4634,053-623-4698,2024-05-20
35.821599,128.5207763,595,의원,베러미의원,"대구광역시 달서구 조암로 5, 4층 (월성동)",응급의료기관이외,대구,053-719-0680,053-719-0680,053-719-0681,2024-05-20
35.85015341,128.5339066,596,의원,베스트정형외과의원,"대구광역시 달서구 달구벌대로 1525, 1,2,7층 (죽전동)",응급의료기관이외,대구,053-559-7582,053-559-7582,070-4151-3419,2024-05-20
35.85509689,128.5037918,597,의원,본즈정형외과의원,"대구광역시 달서구 계대동문로 106, 1,2층(이곡동)",응급의료기관이외,대구,053-262-7575,053-262-7575,053-285-7555,2024-05-20
35.81545362,128.5295127,598,의원,부강외과의원,"대구광역시 달서구 월배로 138, 6층 (진천동)",응급의료기관이외,대구,053-638-7575,053-638-7575,053-638-7579,2024-05-20
35.85553499,128.5088986,599,의원,부부내과가정의학과의원,대구광역시 달서구 이곡공원로 13 (이곡동),응급의료기관이외,대구,053-592-0885,053-592-0885,053-592-0886,2024-05-20
35.81812444,128.5389813,600,의원,뷰시스의원,"대구광역시 달서구 월곡로 266, 5층(상인동)",응급의료기관이외,대구,053-636-0266,053-636-0266,053-636-0265,2024-05-20
35.8195135,128.5387583,601,의원,비너스여성의원,"대구광역시 달서구 월배로 233, 5층 (상인동)",응급의료기관이외,대구,053-634-7742,053-634-7742,053-635-7743,2024-05-20
35.85015341,128.5339066,602,의원,비앤비뇨의학과의원,"대구광역시 달서구 달구벌대로 1525, 3층(죽전동)",응급의료기관이외,대구,053-552-2525,053-552-2525,053-552-2527,2024-05-20
35.82418426,128.5261621,603,의원,비타민나무의원,"대구광역시 달서구 조암로 39, 7층 (월성동)",응급의료기관이외,대구,053-719-0199,053-719-0199,053-719-0198,2024-05-20
35.83547125,128.5556136,604,의원,비타민신통의원,"대구광역시 달서구 월배로 473, 4층 (송현동)",응급의료기관이외,대구,053-656-3535,053-656-3535,053-656-3534,2024-05-20
35.84308719,128.5418959,605,의원,뿡뿡이연합소아청소년과의원,"대구광역시 달서구 장기로 167, 제223동 201-1호 (본리동, 성당레미안이편안세상)",응급의료기관이외,대구,053-626-9119,053-626-9119,053-624-9119,2024-05-20
35.83865726,128.4906036,606,의원,사단법인대한산업보건협회대구의원,"대구광역시 달서구 성서공단로15길 40, 2,3,4층 (호림동)",응급의료기관이외,대구,053-592-4901,053-592-4901,053-592-4905,2024-05-20
35.84945213,128.5274033,607,의원,사랑가득의원,"대구광역시 달서구 달구벌대로 1467, 1층 (용산동, 성서홈플러스)",응급의료기관이외,대구,053-555-8276,053-555-8276,053-554-8276,2024-05-20
35.85204734,128.5376835,608,의원,사랑모아마취통증의학과의원,"대구광역시 달서구 와룡로 218, 2~4층 (죽전동)",응급의료기관이외,대구,053-559-3535,053-559-3535,053-559-3311,2024-05-20
35.85842197,128.5741205,609,의원,사회복지법인전석복지재단소망의원,대구광역시 달서구 성당로 291 (두류동),응급의료기관이외,대구,053-656-8508,053-656-8508,053-627-8508,2024-05-20
35.84376372,128.5337419,610,의원,삼성내과의원,대구광역시 달서구 장기로 244,응급의료기관이외,대구,053-566-7582,053-566-7582,053-563-7583,2024-05-20
35.83755118,128.5502153,611,의원,삼성정형외과의원,"대구광역시 달서구 구마로 205, 3층 (성당동)",응급의료기관이외,대구,053-622-8275,053-622-8275,053-627-9414,2024-05-20
35.81758446,128.5327472,612,의원,상이비인후과의원,"대구광역시 달서구 월배로 175, (상인동)",응급의료기관이외,대구,053-384-0700,053-384-0700,053-289-0701,2024-05-20
35.81323018,128.5449679,613,의원,상인내과의원,"대구광역시 달서구 상인서로 39, 111동 201호 (상인동, 동서아파트상가)",응급의료기관이외,대구,053-636-7587,053-636-7587,053-637-7587,2024-05-20
35.81850138,128.5373349,614,의원,상인마디재활의학과의원,"대구광역시 달서구 월배로 218, 2층 (상인동)",응급의료기관이외,대구,053-634-8200,053-634-8200,053-634-2882,2024-05-20
35.80861844,128.5521729,615,의원,상인백세의원,"대구광역시 달서구 상화로 371, 110동 204호 (상인동, 비둘기에이상가)",응급의료기관이외,대구,053-636-2119,053-636-2119,053-636-2116,2024-05-20
35.8195135,128.5387583,616,의원,상인속편한내과의원,"대구광역시 달서구 월배로 233, 3층 (상인동)",응급의료기관이외,대구,053-644-7585,053-644-7585,053-642-7584,2024-05-20
35.819324,128.5307226,617,의원,상인신정형외과의원,"대구광역시 달서구 상원로 121, 1·4·5층 (상인동)",응급의료기관이외,대구,053-639-0119,053-639-0119,,2024-05-20
35.8177804,128.539322,618,의원,상인연합정형외과의원,대구광역시 달서구 월곡로 260 (상인동),응급의료기관이외,대구,053-644-8575,053-644-8575,053-644-8576,2024-05-20
35.81910639,128.5370845,619,의원,상인제이스성형외과의원,"대구광역시 달서구 월배로 219, 6층 (상인동)",응급의료기관이외,대구,053-644-1175,053-644-1175,053-638-5540,2024-05-20
35.82115374,128.5286764,620,의원,상쾌한이비인후과의원,대구광역시 달서구 조암남로 41 (월성동),응급의료기관이외,대구,053-634-5118,053-634-5118,053-634-5117,2024-05-20
35.81545362,128.5295127,621,의원,샘편한내과의원,"대구광역시 달서구 월배로 138, 4층 (진천동)",응급의료기관이외,대구,053-635-0660,053-635-0660,053-635-0661,2024-05-20
35.85394679,128.5461771,622,의원,서남경대비뇨의학과의원,"대구광역시 달서구 달구벌대로 1647, 7층 (감삼동)",응급의료기관이외,대구,053-526-7900,053-526-7900,053-526-7901,2024-05-20
35.85345697,128.5448784,623,의원,서남내과의원,대구광역시 달서구 달구벌대로 1633 (감삼동),응급의료기관이외,대구,053-556-1383,053-556-1383,053-556-0383,2024-05-20
35.85448216,128.5473654,624,의원,서남안과의원,"대구광역시 달서구 달구벌대로 1659, 3층(감삼동)",응급의료기관이외,대구,053-555-1500,053-555-1500,053-555-1501,2024-05-20
35.85345697,128.5448784,625,의원,서남정형외과의원,"대구광역시 달서구 달구벌대로 1633, 1층,4층 (감삼동)",응급의료기관이외,대구,053-564-0119,053-564-0119,053-563-8812,2024-05-20
35.85383073,128.5459327,626,의원,서대구내과의원,"대구광역시 달서구 달구벌대로 1643, 2층 (감삼동)",응급의료기관이외,대구,053-555-0066,053-555-0066,053-555-6866,2024-05-20
35.81502563,128.5284586,627,의원,서대구제통마취과의원,대구광역시 달서구 월배로 130 (진천동),응급의료기관이외,대구,053-643-0020,053-643-0020,053-643-0020,2024-05-20
35.84019229,128.544245,628,의원,서대규제니스의원,"대구광역시 달서구 당산로 35, 2층 (본리동)",응급의료기관이외,대구,053-527-5305,053-527-5305,053-527-5305,2024-05-20
35.8370371,128.5561448,629,의원,서부신세계영상의학과의원,"대구광역시 달서구 구마로 258, 7층 (송현동)",응급의료기관이외,대구,053-656-5566,053-656-5566,053-656-5719,2024-05-20
35.83791698,128.5568815,630,의원,서부연합외과의원,"대구광역시 달서구 구마로 265, 3층 (성당동)",응급의료기관이외,대구,053-657-7575,053-657-7575,053-657-7576,2024-05-20
35.85712201,128.5213204,631,의원,서석주 비뇨기과의원,"대구광역시 달서구 성지로 88, 2층 (용산동)",응급의료기관이외,대구,053-585-5536,053-585-5536,,2024-05-20
35.850369,128.536089,632,의원,서울안과의원,"대구광역시 달서구 달구벌대로 1545, 골든뷰 메디타워 6층 604호 (죽전동)",응급의료기관이외,대구,053-568-1010,053-568-1010,053-568-1011,2024-05-20
35.85055599,128.5365995,633,의원,서울척척의원,"대구광역시 달서구 달구벌대로 1551, 4층 403~406호(죽전동)",응급의료기관이외,대구,053-563-7725,053-563-7725,053-563-7726,2024-05-20
35.82364538,128.5458914,634,의원,서정형외과의원,"대구광역시 달서구 월배로 316, 1층 (송현동)",응급의료기관이외,대구,053-624-7585,053-624-7585,053-624-7584,2024-05-20
35.81391552,128.5246888,635,의원,선비뇨기과의원,"대구광역시 달서구 월배로 92, 4층 (진천동, 세결빌딩)",응급의료기관이외,대구,053-638-1166,053-638-1166,053-638-1168,2024-05-20
35.81222903,128.5451159,636,의원,선우신경외과의원,대구광역시 달서구 월곡로 180 (상인동),응급의료기관이외,대구,053-638-7722,053-638-7722,053-638-7723,2024-05-20
35.85048245,128.5719929,637,의원,성당연합정형외과의원,"대구광역시 달서구 성당로 195, 2층 (성당동)",응급의료기관이외,대구,053-625-9119,053-625-9119,053-623-9120,2024-05-20
35.82438159,128.5243262,638,의원,성모에이스정형외과의원,"대구광역시 달서구 조암로 48, 원더풀스파랜드 2층 201호(월성동)",응급의료기관이외,대구,053-634-7575,053-634-7575,053-634-7576,2024-05-20
35.81812857,128.5360487,639,의원,성모여성의원,"대구광역시 달서구 월배로 204, 성모여성병원 2층(상인동)",응급의료기관이외,대구,053-640-1024,053-640-1024,053-641-8600,2024-05-20
35.8548693,128.5086489,640,의원,성서마디정형외과의원,"대구광역시 달서구 이곡공원로 12, 1~2층 (이곡동)",응급의료기관이외,대구,053-585-7582,053-585-7582,053-585-7583,2024-05-20
35.8549399,128.5046876,641,의원,성서산부인과의원,대구광역시 달서구 이곡서로 73 (이곡동),응급의료기관이외,대구,053-582-6305,053-582-6305,053-582-6305,2024-05-20
35.85508885,128.5078329,642,의원,성서속내과의원,"대구광역시 달서구 성서로 420, 202~203호 (이곡동, 성서메가타운)",응급의료기관이외,대구,053-586-7572,053-586-7572,053-586-7571,2024-05-20
35.85509985,128.5052311,643,의원,성서씨엘의원,대구광역시 달서구 계대동문로 116 (이곡동),응급의료기관이외,대구,053-587-8302,053-587-8302,053-587-8825,2024-05-20
35.85512544,128.5055745,644,의원,성서연합외과의원,"대구광역시 달서구 계대동문로 120, 5층 (이곡동)",응급의료기관이외,대구,053-588-0975,053-588-0975,053-588-0975,2024-05-20
35.85512544,128.5055745,645,의원,성서정신과의원,대구광역시 달서구 계대동문로 120 (이곡동),응급의료기관이외,대구,053-582-7733,053-582-7733,053-582-7737,2024-05-20
35.85038003,128.5150764,646,의원,성서정형외과의원,"대구광역시 달서구 달구벌대로 1352, 2층 (이곡동)",응급의료기관이외,대구,053-581-0070,053-581-0070,053-582-0080,2024-05-20
35.85515612,128.5047111,647,의원,성서제일신경외과의원,"대구광역시 달서구 달구벌대로251길 33, 302호 (이곡동)",응급의료기관이외,대구,053-585-7276,053-585-7276,053-588-6734,2024-05-20
35.85496251,128.509991,648,의원,성서제일안과의원,대구광역시 달서구 이곡공원로 24 (이곡동),응급의료기관이외,대구,053-591-8100,053-591-8100,053-591-8105,2024-05-20
35.85495822,128.5109985,649,의원,성서한마음연합소아청소년과의원,대구광역시 달서구 이곡공원로 32 (이곡동),응급의료기관이외,대구,053-586-7766,053-586-7766,053-586-7933,2024-05-20
35.83683839,128.5523357,650,의원,세강안과의원,"대구광역시 달서구 구마로 224, 2층 (송현동)",응급의료기관이외,대구,053-629-7050,053-629-7050,053-629-7051,2024-05-20
35.83156785,128.5298746,651,의원,세영의원,"대구광역시 달서구 학산로7길 39 2층 (월성동, 월성주공3단지아파트)",응급의료기관이외,대구,053-571-3212,053-571-3212,053-571-3214,2024-05-20
35.8574945,128.512277,652,의원,소망가정의학과의원,"대구광역시 달서구 선원남로 99 (이곡동, 한빛마을상가)",응급의료기관이외,대구,053-587-2313,053-587-2313,053-587-2312,2024-05-20
35.84333082,128.5358201,653,의원,속보는연합의원,"대구광역시 달서구 장기로 225, 2층(장기동)",응급의료기관이외,대구,053-566-1088,053-566-1088,053-566-1089,2024-05-20
35.81392961,128.5214576,654,의원,속시원곽앤이내과의원,"대구광역시 달서구 월배로 63, 4층 (진천동)",응급의료기관이외,대구,053-643-3900,053-643-3900,053-643-3902,2024-05-20
35.83421382,128.5307667,655,의원,속시원이재성내과의원,"대구광역시 달서구 학산로7길 67, 2,3층 (본동)",응급의료기관이외,대구,053-635-7520,053-635-7520,053-635-7521,2024-05-20
35.81666535,128.5224494,656,의원,속튼튼내과의원,대구광역시 달서구 진천로 93 (대천동),응급의료기관이외,대구,053-633-3000,053-633-3000,053-644-3004,2024-05-20
35.85378067,128.4995541,657,의원,속편안연합의원,"대구광역시 달서구 신당로 63, 상가2-2,2-3호(신당동)",응급의료기관이외,대구,053-588-8575,053-588-8575,0303-3440-8575,2024-05-20
35.81728008,128.5322804,658,의원,속플러스내과의원,"대구광역시 달서구 월배로 169, 2층 (진천동)",응급의료기관이외,대구,053-634-6030,053-634-6030,050-4428-2130,2024-05-20
35.80717774,128.5359638,659,의원,손이비인후과의원,"대구광역시 달서구 도원로 29, 2층 (도원동)",응급의료기관이외,대구,053-634-5556,053-634-5556,053-634-0812,2024-05-20
35.85350143,128.5450115,660,의원,손창헌산부인과의원,대구광역시 달서구 달구벌대로 1635 (감삼동),응급의료기관이외,대구,053-556-3330,053-556-3330,053-557-4777,2024-05-20
35.850369,128.536089,661,의원,송마음정신건강의학과의원,"대구광역시 달서구 달구벌대로 1545, 골든뷰 메디타워 602호 (죽전동)",응급의료기관이외,대구,053-522-6688,053-522-6688,053-522-6699,2024-05-20
35.82432872,128.5422882,662,의원,송현내과의원,"대구광역시 달서구 송현로 103 (송현동, 우방상가)",응급의료기관이외,대구,053-642-7200,053-642-7200,053-642-7201,2024-05-20
35.83547125,128.5556136,663,의원,송현정형외과의원,"대구광역시 달서구 월배로 473, 2층 (송현동)",응급의료기관이외,대구,053-626-1191,053-626-1191,053-626-1198,2024-05-20
35.81910639,128.5370845,664,의원,수연합내과의원,"대구광역시 달서구 월배로 219, 501,502호 (상인동)",응급의료기관이외,대구,053-642-7575,053-642-7575,053-642-7595,2024-05-20
35.85450681,128.5498567,665,의원,수외과의원,대구광역시 달서구 달구벌대로 1680 (두류동),응급의료기관이외,대구,053-656-7577,053-656-7577,053-656-7599,2024-05-20
35.81391552,128.5246888,666,의원,수이비인후과의원,"대구광역시 달서구 월배로 92, 5층 (진천동)",응급의료기관이외,대구,053-635-8575,053-635-8575,053-636-8577,2024-05-20
35.85378067,128.4995541,667,의원,수제통의원,대구광역시 달서구 신당로 63(신당동),응급의료기관이외,대구,053-591-8700,053-591-8700,053-591-8701,2024-05-20
35.850369,128.536089,668,의원,숨튼이비인후과의원,"대구광역시 달서구 달구벌대로 1545, 골든뷰 메디타워 205호(죽전동)",응급의료기관이외,대구,053-633-7575,053-633-7575,053-633-7574,2024-05-20
35.82255595,128.5476104,669,의원,숨편한내과의원,"대구광역시 달서구 송현로 42, 2층 (송현동)",응급의료기관이외,대구,053-626-3614,053-626-3614,053-627-3614,2024-05-20
35.84541093,128.5442586,670,의원,스마일 마취통증의학과의원,"대구광역시 달서구 당산로 89, 2층(감삼동)",응급의료기관이외,대구,053-553-8575,053-553-8575,053-553-8577,2024-05-20
35.85425935,128.5100197,671,의원,스마트의원,"대구광역시 달서구 이곡동로 23, 4층 401호 (이곡동)",응급의료기관이외,대구,053-582-2727,053-582-2727,053-582-3773,2024-05-20
35.82551999,128.5298564,672,의원,스마트정형외과의원,"대구광역시 달서구 월곡로 379, 4층 401,402,403호 (월성동)",응급의료기관이외,대구,053-644-8811,053-644-8811,053-644-8812,2024-05-20
35.84811532,128.5280476,673,의원,시원이비인후과의원,"대구광역시 달서구 한들로 23, 3층 (장기동)",응급의료기관이외,대구,053-525-8275,053-525-8275,053-525-8274,2024-05-20
35.85215632,128.5434966,674,의원,시티비뇨기과의원,"대구광역시 달서구 달구벌대로 1616, 2층 (감삼동)",응급의료기관이외,대구,053-565-7500,053-565-7500,053-565-7501,2024-05-20
35.85389318,128.5480478,675,의원,시티이비인후과의원,"대구광역시 달서구 달구벌대로 1664, 2층 (감삼동)",응급의료기관이외,대구,053-638-0298,053-638-0298,0504-419-0298,2024-05-20
35.85404428,128.5485138,676,의원,신대구정신건강의학과의원,"대구광역시 달서구 달구벌대로 1666, 감삼스퀘어 4층 404·405호 (두류동)",응급의료기관이외,대구,053-566-0364,053-566-0364,053-566-0365,2024-05-20
35.85502574,128.5120729,677,의원,신상근이비인후과의원,"대구광역시 달서구 이곡공원로 42, 2층 (이곡동)",응급의료기관이외,대구,053-593-1192,053-593-1192,050-4263-1863,2024-05-20
35.85683239,128.5556855,678,의원,신세계영상의학과의원,대구광역시 달서구 달구벌대로 1740 (두류동),응급의료기관이외,대구,053-621-0100,053-621-0100,053-629-3516,2024-05-20
35.85509985,128.5052311,679,의원,신세계이비인후과의원,대구광역시 달서구 계대동문로 116 (이곡동),응급의료기관이외,대구,053-583-0069,053-583-0069,053-583-0069,2024-05-20
35.8431634,128.5392376,680,의원,신세계재활의학과의원,"대구광역시 달서구 장기로 193, 2층 (본리동)",응급의료기관이외,대구,053-521-2500,053-521-2500,053-521-2501,2024-05-20
35.83016759,128.5505848,681,의원,신세계정형외과의원,"대구광역시 달서구 월배로 397, 1,2층 (송현동)",응급의료기관이외,대구,053-657-8575,053-657-8575,053-657-8572,2024-05-20
35.85632886,128.5213152,682,의원,신왕식내과의원,대구광역시 달서구 성지로 80 (용산동),응급의료기관이외,대구,053-588-7642,053-588-7642,053-586-7642,2024-05-20
35.82438159,128.5243262,683,의원,신월성정신건강의학과의원,"대구광역시 달서구 조암로 48, 월더풀스파랜드 3층 307호(월성점)",응급의료기관이외,대구,053-641-0114,053-641-0114,053-641-0115,2024-05-20
35.81266296,128.5448312,684,의원,신태현이비인후과의원,"대구광역시 달서구 월곡로 184, 303호 (상인동, 리빙프리자)",응급의료기관이외,대구,053-641-7222,053-641-7222,053-641-7229,2024-05-20
35.81850138,128.5373349,685,의원,심안과의원,"대구광역시 달서구 월배로 218, 6,7층 (상인동)",응급의료기관이외,대구,053-635-3600,053-635-3600,053-635-3603,2024-05-20
35.85158476,128.5052088,686,의원,아세아정형외과의원,대구광역시 달서구 달구벌대로 1260 (이곡동),응급의료기관이외,대구,053-582-5400,053-582-5400,053-582-0660,2024-05-20
35.81449849,128.5274038,687,의원,아이자람소아청소년과의원,"대구광역시 달서구 월배로 120, 서호메디컬타워 3층 301호 (진천동)",응급의료기관이외,대구,053-215-1243,053-215-1243,053-215-1244,2024-05-20
35.85125915,128.5076091,688,의원,안도환비뇨기과의원,대구광역시 달서구 달구벌대로 1282 (이곡동),응급의료기관이외,대구,053-582-4871,053-582-4871,053-588-7272,2024-05-20
35.85848879,128.5302756,689,의원,안주선이비인후과의원,"대구광역시 달서구 용산로 235, 2층 (용산동)",응급의료기관이외,대구,053-521-1184,053-521-1184,,2024-05-20
35.85496251,128.509991,690,의원,에스(S)사랑마취통증의학과의원,"대구광역시 달서구 이곡공원로 24, 2층 (이곡동)",응급의료기관이외,대구,053-585-3007,053-585-3007,053-585-3005,2024-05-20
35.8143172,128.5218129,691,의원,에스척정형외과의원,"대구광역시 달서구 월배로 63, 2층 (진천동)",응급의료기관이외,대구,053-213-5005,053-213-5005,053-213-5006,2024-05-20
35.85508885,128.5078329,692,의원,에스피부과의원,대구광역시 달서구 성서로 420 (이곡동),응급의료기관이외,대구,053-584-7582,053-584-7582,053-584-7587,2024-05-20
35.85508798,128.5059064,693,의원,엘르산부인과의원,"대구광역시 달서구 계대동문로 124, 5층 (이곡동)",응급의료기관이외,대구,053-593-9000,053-593-9000,053-593-9003,2024-05-20
35.81850138,128.5373349,694,의원,엘린의원,대구광역시 달서구 월배로 218 (상인동),응급의료기관이외,대구,053-564-7588,053-564-7588,053-632-7337,2024-05-20
35.850369,128.536089,695,의원,여상목내과의원,"대구광역시 달서구 달구벌대로 1545, 골든뷰 메디타워(죽전동)",응급의료기관이외,대구,053-551-0808,053-551-0808,053-551-0807,2024-05-20
35.82811673,128.5316889,696,의원,여인석내과의원,대구광역시 달서구 학산로7길 5 (월성동),응급의료기관이외,대구,053-633-9779,053-633-9779,053-633-9780,2024-05-20
35.85424897,128.5103407,697,의원,여준기내과의원,대구광역시 달서구 이곡동로 25 (이곡동),응급의료기관이외,대구,053-592-7100,053-592-7100,053-591-7101,2024-05-20
35.85427987,128.5094331,698,의원,연세연합의원,대구광역시 달서구 이곡동로 17,응급의료기관이외,대구,053-565-8275,053-565-8275,053-565-8274,2024-05-20
35.85359081,128.5451782,699,의원,영남안과의원,대구광역시 달서구 달구벌대로 1637 (감삼동),응급의료기관이외,대구,053-566-5063,053-566-5063,053-566-5073,2024-05-20
35.81212305,128.5366389,700,의원,영남연합의원,대구광역시 달서구 상원로 24 (상인동),응급의료기관이외,대구,053-631-5656,053-631-5656,053-631-5625,2024-05-20
35.83675725,128.5542943,701,의원,영남정형외과의원,대구광역시 달서구 구마로 242(송현동),응급의료기관이외,대구,053-656-6555,053-656-6555,053-652-1019,2024-05-20
35.84334216,128.5312483,702,의원,영이비인후과의원,"대구광역시 달서구 장기로 265, 2층 (장기동)",응급의료기관이외,대구,053-571-7575,053-571-7575,053-571-7574,2024-05-20
35.85509985,128.5052311,703,의원,영재산부인과의원,"대구광역시 달서구 계대동문로 116, 4층 (이곡동)",응급의료기관이외,대구,053-586-7582,053-586-7582,053-583-7583,2024-05-20
35.85934983,128.5704513,704,의원,영진의료소비자생활협동조합 중앙연합의원,"대구광역시 달서구 두류길 76, 1층 (두류동)",응급의료기관이외,대구,053-653-2401,053-653-2401,053-653-2402,2024-05-20
35.82531787,128.5266344,705,의원,예담소아청소년과의원,"대구광역시 달서구 조암로 28, 3층 302호 (월성동, L타워)",응급의료기관이외,대구,053-633-1415,053-633-1415,053-632-1416,2024-05-20
35.83791698,128.5568815,706,의원,예스연합비뇨기과의원,"대구광역시 달서구 구마로 265, 4층 (성당동)",응급의료기관이외,대구,053-626-7766,053-626-7766,053-626-7790,2024-05-20
35.84087668,128.5443825,707,의원,예일이비인후과의원,"대구광역시 달서구 당산로 39, 상가204호 (본리동)",응급의료기관이외,대구,053-568-8575,053-568-8575,053-568-8576,2024-05-20
35.85602251,128.5534544,708,의원,오감성형외과의원,대구광역시 달서구 달구벌대로 1718 (두류동),응급의료기관이외,대구,053-654-5119,053-654-5119,053-625-8225,2024-05-20
35.84955946,128.5357182,709,의원,오라클피부과의원,"대구광역시 달서구 달구벌대로 1542, 8층 (감삼동)",응급의료기관이외,대구,053-522-7791,053-522-7791,053-522-7793,2024-05-20
35.8542145,128.5467657,710,의원,오명진속내과의원,"대구광역시 달서구 달구벌대로 1653, 2층(감삼동)",응급의료기관이외,대구,053-558-8575,053-558-8575,053-558-8576,2024-05-20
35.850369,128.536089,711,의원,오상호재활의학과의원,"대구광역시 달서구 달구벌대로 1545, 골든뷰 메디타워 404호 (죽전동)",응급의료기관이외,대구,053-562-7582,053-562-7582,053-562-7581,2024-05-20
35.86094793,128.5736516,712,의원,오영철내과의원,대구광역시 달서구 명덕로 17 (두류동),응급의료기관이외,대구,053-628-7500,053-628-7500,053-628-2662,2024-05-20
35.8398497,128.5442648,713,의원,오해일여성의원,대구광역시 달서구 당산로 27 (본리동),응급의료기관이외,대구,053-527-7167,053-527-7167,053-527-7167,2024-05-20
35.81391552,128.5246888,714,의원,온누리안과의원,대구광역시 달서구 월배로 92 (진천동),응급의료기관이외,대구,053-642-0537,053-642-0537,053-642-9735,2024-05-20
35.81449849,128.5274038,715,의원,올바른마취통증의학과의원,"대구광역시 달서구 월배로 120, 3층 302호 (진천동)",응급의료기관이외,대구,053-633-8275,053-633-8275,053-633-8280,2024-05-20
35.83762484,128.5557394,716,의원,와우이비인후과의원,"대구광역시 달서구 구마로 255, 3층 (성당동)",응급의료기관이외,대구,053-654-2052,053-654-2052,053-651-2052,2024-05-20
35.81758446,128.5327472,717,의원,완쾌신경과의원,"대구광역시 달서구 월배로 175, 우리빌딩 3,7층 302,701,702호 (상인동)",응급의료기관이외,대구,053-642-2123,053-642-2123,053-642-2103,2024-05-20
35.8501251,128.5301312,718,의원,용산마취통증의학과의원,대구광역시 달서구 용산로 141 (용산동),응급의료기관이외,대구,053-522-8257,053-522-8257,053-521-8275,2024-05-20
35.85689673,128.5213078,719,의원,용산삼성내과의원,대구광역시 달서구 성지로 86 (용산동),응급의료기관이외,대구,053-588-5575,053-588-5575,053-588-5576,2024-05-20
35.85718832,128.5308537,720,의원,용산정형외과의원,"대구광역시 달서구 용산로 220,2층(용산동)",응급의료기관이외,대구,053-524-1190,053-524-1190,053-524-1192,2024-05-20
35.8501251,128.5301312,721,의원,우리들의신경외과의원,대구광역시 달서구 용산로 141 (용산동),응급의료기관이외,대구,053-562-0075,053-562-0075,053-562-0079,2024-05-20
35.8501251,128.5301312,722,의원,우리안과의원,"대구광역시 달서구 용산로 141, 701호 (용산동, 그랜드엠타워)",응급의료기관이외,대구,053-521-6700,053-521-6700,053-521-6701,2024-05-20
35.79900542,128.5292484,723,의원,우리연합소아청소년과의원,"대구광역시 달서구 한실로6길 98, 2층 202호 (대곡동)",응급의료기관이외,대구,053-631-7187,053-631-7187,053-631-7185,2024-05-20
35.80928928,128.512741,724,의원,우리이비인후과의원,대구광역시 달서구 비슬로 2720 (대곡동),응급의료기관이외,대구,053-635-9030,053-635-9030,050-4471-1952,2024-05-20
35.85259855,128.4777916,725,의원,우종이비인후과의원,"대구광역시 달서구 호산로 143, 3층 (파호동)",응급의료기관이외,대구,053-591-5075,053-591-5075,050-4242-3152,2024-05-20
35.83807918,128.5529974,726,의원,원준의원,"대구광역시 달서구 대명천로 59, 2층 (성당동)",응급의료기관이외,대구,053-657-8085,053-657-8085,053-622-0226,2024-05-20
35.843344,128.536751,727,의원,원팀재활의학과의원,"대구광역시 달서구 장기로 217, 6층 (본리동)",응급의료기관이외,대구,053-525-7570,053-525-7570,053-525-7571,2024-05-20
35.81404722,128.5254864,728,의원,월배이노안과의원,"대구광역시 달서구 월배로 100, 2층 (진천동)",응급의료기관이외,대구,053-635-6800,053-635-6800,053-639-6200,2024-05-20
35.81496073,128.5268204,729,의원,월배정신건강의학과의원,"대구광역시 달서구 월배로 113, 3층 (진천동)",응급의료기관이외,대구,053-636-0088,053-636-0088,053-636-0188,2024-05-20
35.81589672,128.5291837,730,의원,월배제통내과의원,"대구광역시 달서구 월배로 137, 1층 (진천동)",응급의료기관이외,대구,053-631-1191,053-631-1191,053-631-1190,2024-05-20
35.8142425,128.5261738,731,의원,월배홍의원,"대구광역시 달서구 월배로 106, 1층 (진천동)",응급의료기관이외,대구,053-636-1003,053-636-1003,053-641-1003,2024-05-20
35.82455093,128.5268175,732,의원,월성마디안의원,"대구광역시 달서구 조암로 29, 월성동이래타워 3층 304,305호(월성동)",응급의료기관이외,대구,053-641-1233,053-641-1233,053-641-1231,2024-05-20
35.82625298,128.5291972,733,의원,월성속사랑내과의원,"대구광역시 달서구 조암로 4, 2층 203,204호(월성동)",응급의료기관이외,대구,053-643-6666,053-643-6666,053-643-6677,2024-05-20
35.82692745,128.5315813,734,의원,월성제일내과의원,대구광역시 달서구 학산로 16 (월성동),응급의료기관이외,대구,053-636-0222,053-636-0222,053-636-5445,2024-05-20
35.83194467,128.5343266,735,의원,월성제일외과의원,"대구광역시 달서구 구마로12길 93, 210호 (본동, 월성주공5단지상가)",응급의료기관이외,대구,053-636-7484,053-636-7484,053-636-7484,2024-05-20
35.83158937,128.533151,736,의원,월성종합내과의원,"대구광역시 달서구 월성로 20, 202호 (월성동, 건도파라다이스)",응급의료기관이외,대구,053-637-8275,053-637-8275,053-633-6780,2024-05-20
35.82413017,128.5463153,737,의원,월촌탑마취통증의학과의원,"대구광역시 달서구 월배로 322, 3층(송현동)",응급의료기관이외,대구,053-656-7582,053-656-7582,053-656-7585,2024-05-20
35.80079285,128.5326901,738,의원,웰리브의원,"대구광역시 달서구 갈밭로 6, 대곡메디컬빌딩 2층 203호 (대곡동)",응급의료기관이외,대구,053-633-0077,053-633-0077,053-573-0078,2024-05-20
35.82455093,128.5268175,739,의원,웰키즈소아청소년과의원,"대구광역시 달서구 조암로 29, 월성동이래타워 3층 301,302,303호(월성동)",응급의료기관이외,대구,053-639-9700,053-639-9700,053-639-9701,2024-05-20
35.81313337,128.5283353,740,의원,유가정의학과의원,대구광역시 달서구 월배로28안길 53 (진천동),응급의료기관이외,대구,053-636-7010,053-636-7010,053-636-7011,2024-05-20
35.8195135,128.5387583,741,의원,유로합동비뇨기과의원,"대구광역시 달서구 월배로 233, 7층 (상인동)",응급의료기관이외,대구,053-634-7501,053-634-7501,053-641-7503,2024-05-20
35.84648232,128.5445206,742,의원,유림연합의원,"대구광역시 달서구 당산로 99-1, 1층 (감삼동)",응급의료기관이외,대구,053-525-8006,053-525-8006,053-525-8002,2024-05-20
35.85587979,128.5531323,743,의원,유수정산부인과의원,대구광역시 달서구 달구벌대로 1714 (두류동),응급의료기관이외,대구,053-622-9900,053-622-9900,053-622-0902,2024-05-20
35.82245549,128.5478975,744,의원,윤내과의원,대구광역시 달서구 송현로 40,응급의료기관이외,대구,053-628-2288,053-628-2288,053-628-0090,2024-05-20
35.85107202,128.5731042,745,의원,윤병헌내과의원,대구광역시 달서구 성당로 209 (성당동),응급의료기관이외,대구,053-626-0596,053-626-0596,053-625-0596,2024-05-20
35.85699314,128.5560077,746,의원,윤형진내과의원,대구광역시 달서구 달구벌대로 1744 (두류동),응급의료기관이외,대구,053-625-8575,053-625-8575,053-654-2091,2024-05-20
35.82088523,128.5463484,747,의원,은샘연합소아청소년과의원,대구광역시 달서구 송현로7길 20,응급의료기관이외,대구,053-624-7575,053-624-7575,053-637-3178,2024-05-20
35.85508885,128.5078329,748,의원,이강혁이비인후과의원,대구광역시 달서구 성서로 420 (이곡동),응급의료기관이외,대구,053-585-8600,053-585-8600,053-585-8630,2024-05-20
